"","state","county","latitude","longitude","lagi"
"1","AL","Autauga",32.524787375,-86.637706375,14.0028718937108
"2","AL","Baldwin",30.5872017692308,-87.7190561153846,15.4046773933968
"3","AL","Barbour",31.8161686,-85.4180688,12.8262189332056
"4","AL","Bibb",33.032728375,-87.080730625,12.7492308908444
"5","AL","Blount",33.9519438571429,-86.582932,13.8131728276007
"6","AL","Bullock",32.10515375,-85.71408825,11.6474650991484
"7","AL","Butler",31.6921958,-86.7032796,12.816253891616
"8","AL","Calhoun",33.7673052941176,-85.8300413529412,14.5839994136391
"9","AL","Chambers",32.8801192,-85.3072474,13.1498851548626
"10","AL","Cherokee",34.1930998,-85.6118958,12.8165662129674
"11","AL","Chilton",32.8482811428571,-86.7365678571429,13.4681223584173
"12","AL","Choctaw",32.0519413636364,-88.2105660909091,12.3615624283587
"13","AL","Clarke",31.6621173571429,-87.848348,13.019069613432
"14","AL","Clay",33.2473113333333,-85.862191,12.2114581178065
"15","AL","Cleburne",33.6815862,-85.4502488,12.3907830135081
"16","AL","Coffee",31.3705865,-85.9921708333333,13.8761605912225
"17","AL","Colbert",34.7139988333333,-87.7610218333333,13.9316406727437
"18","AL","Conecuh",31.4386986666667,-87.0804243333333,12.1148779853452
"19","AL","Coosa",32.9465996,-86.1511956,11.905251296271
"20","AL","Covington",31.206252,-86.435104625,13.3861712148035
"21","AL","Crenshaw",31.71421375,-86.318535,12.3123542368675
"22","AL","Cullman",34.133397,-86.8557109230769,14.1887933253615
"23","AL","Dale",31.3891224,-85.616952,13.6380511616872
"24","AL","Dallas",32.3533043,-87.1081816,13.2899959101188
"25","AL","Elmore",32.6020686,-86.1777687,14.3794871096478
"26","AL","Escambia",31.1087695714286,-87.3058398571429,13.3188425735207
"27","AL","Etowah",34.0146128181818,-86.0618324545455,14.3936014818247
"28","AL","Fayette",33.7203974,-87.776232,12.4566990594057
"29","AL","Franklin",34.4227255714286,-87.8779805714286,13.0801383157122
"30","AL","Geneva",31.1180497777778,-85.7916264444444,12.8608479525705
"31","AL","Greene",32.781917,-87.9292523333333,11.5472979057602
"32","AL","Hale",32.7223866666667,-87.6409386666667,12.355647156364
"33","AL","Henry",31.4573675,-85.25104575,12.6157422357362
"34","AL","Houston",31.1691548333333,-85.2940904166667,14.5834780640369
"35","AL","Jackson",34.7675006315789,-85.989955631579,13.7046583237195
"36","AL","Jefferson",33.5410916190476,-86.8802047428571,16.7104042984906
"37","AL","Lamar",33.7972826666667,-88.081859,12.239860357393
"38","AL","Lauderdale",34.8931821818182,-87.617946,14.4628169207537
"39","AL","Lawrence",34.5829636,-87.3504684,13.2602818825623
"40","AL","Lee",32.5824085384615,-85.3648619230769,14.9258501455969
"41","AL","Limestone",34.8086920909091,-86.9906227272727,14.5271055268718
"42","AL","Lowndes",32.13299625,-86.59071125,12.0327663290631
"43","AL","Macon",32.3801441428571,-85.757629,12.4992645111556
"44","AL","Madison",34.7407230526316,-86.5674638684211,16.1690029058422
"45","AL","Marengo",32.2831121,-87.7932086,12.7758763598531
"46","AL","Marion",34.1056756666667,-87.8245053333333,12.9435907158256
"47","AL","Marshall",34.3335042,-86.2926333,14.3395133798506
"48","AL","Mobile",30.6672823387097,-88.1680394032258,15.9294363731711
"49","AL","Monroe",31.5418644666667,-87.3612201333333,12.757163628924
"50","AL","Montgomery",32.2670997272727,-86.22541925,15.4111823506738
"51","AL","Morgan",34.4954311538462,-86.8810908461539,14.7934189243369
"52","AL","Perry",32.548815,-87.375108,11.6305662682899
"53","AL","Pickens",33.3013615,-88.065863,12.5638414909405
"54","AL","Pike",31.8085413333333,-85.9538943333333,13.1747224036978
"55","AL","Randolph",33.3300368333333,-85.4325221666667,12.7207000334241
"56","AL","Russell",32.3097840909091,-85.1434507272727,13.7699670178029
"57","AL","Shelby",33.2601147368421,-86.6701504736842,15.6930173556091
"58","AL","Sumter",32.60788825,-88.19834775,12.0151784484315
"59","AL","Talladega",33.3410656,-86.2151507,14.0938170668525
"60","AL","Tallapoosa",32.892448,-85.790548,13.5268546781827
"61","AL","Tuscaloosa",33.25891025,-87.5258308928571,15.2519691388067
"62","AL","Walker",33.7999628421053,-87.2804335789474,14.2432425747929
"63","AL","Washington",31.3991395,-88.1797799285714,12.6690485128048
"64","AL","Wilcox",32.0172294285714,-87.3039622857143,11.8891402565836
"65","AL","Winston",34.13798275,-87.402225875,12.8284861545753
"66","AR","Arkansas",34.317439,-91.300762,17.9533665030576
"67","AR","Arkansas",34.317439,-91.300762,12.8650320265529
"68","AR","Ashley",33.2178551428571,-91.6882967142857,12.8356914612395
"69","AR","Baxter",36.3306923333333,-92.38756225,13.5483733209642
"70","AR","Benton",36.3616203809524,-94.2637158571429,16.0092040193533
"71","AR","Boone",36.3163343333333,-93.0584487777778,13.3912967869443
"72","AR","Bradley",33.47459975,-92.19609625,12.0334617869194
"73","AR","Calhoun",33.5913835,-92.53906475,11.3073639399869
"74","AR","Carroll",36.3931088333333,-93.6220788333333,12.9531230865511
"75","AR","Chicot",33.30875675,-91.31364425,12.0239090762555
"76","AR","Clark",34.0300136,-93.1801285,12.7263088505503
"77","AR","Clay",36.3741557272727,-90.4410683636364,12.3235134003929
"78","AR","Cleburne",35.5653877272727,-92.0138424545455,13.0984497113563
"79","AR","Cleveland",33.8837186666667,-92.2075243333333,11.8514242182474
"80","AR","Columbia",33.2333458571429,-93.2434872857143,13.0172517196677
"81","AR","Conway",35.271394,-92.6766668888889,12.8565132443504
"82","AR","Craighead",35.8324086428571,-90.6200434285714,14.5286407417086
"83","AR","Crawford",35.5731525454545,-94.267411,13.823930014657
"84","AR","Crittenden",35.2297348,-90.2862865,13.6603141649028
"85","AR","Cross",35.3198502857143,-90.7719334285714,12.6400571809654
"86","AR","Dallas",33.98148325,-92.65709325,11.5921894079468
"87","AR","Desha",33.773379875,-91.307774875,12.2216752887576
"88","AR","Drew",33.6230076666667,-91.7268771666667,12.6605088538188
"89","AR","Faulkner",35.1738016363636,-92.333786,14.7213799760902
"90","AR","Franklin",35.4099605,-93.8641295,12.5548333543652
"91","AR","Fulton",36.3929993,-91.7837302,11.9198295372726
"92","AR","Garland",34.5609181538462,-93.0784089230769,14.5679690277085
"93","AR","Grant",34.2590778,-92.49303,12.7620848053331
"94","AR","Greene",36.129251,-90.597354125,13.5086796444515
"95","AR","Hempstead",33.789217875,-93.68227525,12.5888216863946
"96","AR","Hot Spring",34.3087258333333,-93.0208525,13.1147605490099
"97","AR","Howard",34.0264886,-93.9783848,12.185992379696
"98","AR","Independence",35.718478,-91.560901375,13.3681760319795
"99","AR","Izard",36.0832033333333,-91.9681852666667,12.0837016010389
"100","AR","Jackson",35.5929672222222,-91.1711315555556,12.377253204575
"101","AR","Jefferson",34.2953746875,-91.9288545,14.0274993253629
"102","AR","Johnson",35.491488,-93.482172625,12.8324254290434
"103","AR","Lafayette",33.2973258,-93.54167,11.5025417402155
"104","AR","Lawrence",36.0436962857143,-91.1368680714286,12.3507658872984
"105","AR","Lee",34.7973148333333,-90.8091451666667,11.7987132443813
"106","AR","Lincoln",34.02652025,-91.6850655,12.0393684996313
"107","AR","Little River",33.7338871666667,-94.2092805,12.2520970838415
"108","AR","Logan",35.2534286666667,-93.6600202222222,12.6916019995415
"109","AR","Lonoke",34.7781426666667,-91.8936626666667,14.2393328047086
"110","AR","Madison",36.032906625,-93.713566625,12.3655988512943
"111","AR","Marion",36.3064797142857,-92.6671672857143,12.3020053587931
"112","AR","Miller",33.3627435,-93.91033175,13.612124289781
"113","AR","Mississippi",35.71008505,-90.0504946,13.4877562098828
"114","AR","Monroe",34.713443,-91.214856,11.6325734272361
"115","AR","Montgomery",34.567062625,-93.661516,11.648312634575
"116","AR","Nevada",33.7203374285714,-93.3127202857143,11.7365968769415
"117","AR","Newton",35.9519487,-93.1840212,11.4909967792126
"118","AR","Ouachita",33.573724,-92.8874256666667,12.9188827377442
"119","AR","Perry",34.9971036666667,-92.7913238333333,12.0659941530583
"120","AR","Phillips",34.4404987692308,-90.8497689230769,12.5500381658174
"121","AR","Pike",34.1414024285714,-93.6589017142857,11.9311422570036
"122","AR","Poinsett",35.5696402222222,-90.6286682222222,12.7605753840788
"123","AR","Polk",34.424573,-94.276157,12.5541381342401
"124","AR","Pope",35.4216271818182,-93.0434115454545,13.9729484005758
"125","AR","Prairie",34.7582,-91.5306333333333,11.8017144245963
"126","AR","Pulaski",34.7578787826087,-92.3243676521739,16.2749365659985
"127","AR","Randolph",36.3494161428571,-90.9709818571429,12.469355718533
"128","AR","Saline",34.601382625,-92.6288055,14.7527734290673
"129","AR","Scott",34.9169688333333,-94.1085908333333,11.785575114588
"130","AR","Searcy",35.9027487142857,-92.6596971428571,11.3476733920718
"131","AR","Sebastian",35.2196825,-94.2981947,14.7794204829745
"132","AR","Sevier",33.9851618,-94.2420232,12.3112791493288
"133","AR","Sharp",36.1572747777778,-91.5184506666667,12.2904459625642
"134","AR","Stone",35.9080561111111,-92.1173944444444,11.9635614972804
"135","AR","Union",33.215153,-92.572388,13.9198894920285
"136","AR","Van Buren",35.5607148571429,-92.439008,12.4867225501464
"137","AR","Washington",36.0156307391304,-94.2324050869565,15.3176371642967
"138","AR","White",35.2497322631579,-91.741409368421,14.1726191078823
"139","AR","Woodruff",35.180919,-91.264952125,11.6015405553239
"140","AR","Yell",35.0475533636364,-93.2988422727273,12.6009788709884
"141","AZ","Apache",35.1629118275862,-109.471013689655,13.6461245747196
"142","AZ","Cochise",31.751278,-109.93836162963,14.6868729591816
"143","AZ","Coconino",35.7230810740741,-111.821823037037,14.8332063128395
"144","AZ","Gila",33.647141,-110.924738714286,13.7275074166116
"145","AZ","Graham",32.8998016666667,-109.790554666667,13.1572535735433
"146","AZ","Greenlee",33.007195,-109.26742175,12.0976128877347
"147","AZ","La Paz",33.8148355555556,-114.083803,12.3119585231612
"148","AZ","Maricopa",33.3128577513228,-112.093193566138,18.4446895325445
"149","AZ","Mohave",35.2786773333333,-114.115544833333,14.9240603061156
"150","AZ","Navajo",34.9011741724138,-110.232106,14.1813543393509
"151","AZ","Pima",32.128134761194,-111.235251671642,16.9251990877186
"152","AZ","Pinal",32.9643699130435,-111.381932434783,15.5923934171265
"153","AZ","Santa Cruz",31.5724482,-110.8850678,13.5901796160546
"154","AZ","Yavapai",34.6279235,-112.3162138125,15.3333144253233
"155","AZ","Yuma",32.6658880833333,-114.32011125,14.962500544797
"156","CA","Alameda",37.7322038888889,-122.097679916667,17.8417978644459
"157","CA","Alpine",38.673376,-120.058845,9.95308691302741
"158","CA","Amador",38.4519337692308,-120.710696692308,13.6816065244892
"159","CA","Butte",39.6405139583333,-121.600369041667,15.2731960790435
"160","CA","Calaveras",38.2096915714286,-120.561866571429,13.8591292779993
"161","CA","Colusa",39.192646375,-122.174639375,13.084005012322
"162","CA","Contra Costa",37.89922694,-122.01435086,17.7174056891794
"163","CA","Del Norte",41.8230145,-124.064046166667,12.9134875562211
"164","CA","El Dorado",38.8063571,-120.501534933333,15.6455059607375
"165","CA","Fresno",36.7391188367347,-119.700680132653,16.6921719231597
"166","CA","Glenn",39.5972232857143,-122.196662571429,13.1162708556274
"167","CA","Humboldt",40.6125902105263,-123.944300315789,14.7089518176208
"168","CA","Imperial",32.9941549411765,-115.407982294118,14.8668047983684
"169","CA","Inyo",36.58473825,-117.58064175,12.9784306493822
"170","CA","Kern",35.3522892794118,-118.646092073529,16.6094378596745
"171","CA","Kings",36.1498194444444,-119.851036444444,14.626247422156
"172","CA","Lake",39.0391274285714,-122.774060857143,13.7837938591377
"173","CA","Lassen",40.5275164666667,-120.573224866667,13.1008189540618
"174","CA","Los Angeles",33.8003781856061,-118.279268850379,19.4812202624618
"175","CA","Madera",37.1861088333333,-119.798888916667,14.6746186874706
"176","CA","Marin",38.0362987073171,-122.668887170732,16.7482760878244
"177","CA","Mariposa",37.571633625,-119.961797625,12.7646335916012
"178","CA","Mendocino",39.3267428928571,-123.489096571429,14.3207890246636
"179","CA","Merced",37.2910576521739,-120.633031565217,15.1580233409805
"180","CA","Modoc",41.4556578,-120.657386,11.8411710985512
"181","CA","Mono",38.0278164285714,-119.123642714286,12.6337166403598
"182","CA","Monterey",36.4505203714286,-121.472378171429,16.1575042310789
"183","CA","Napa",38.4934254545455,-122.400164363636,15.4109925378235
"184","CA","Nevada",39.2776769333333,-120.737055533333,14.8552263349398
"185","CA","Orange",33.6337053263889,-117.761154409722,18.5329048372794
"186","CA","Placer",39.0222695517241,-120.85109537931,16.3377504837649
"187","CA","Plumas",39.9564715,-120.8372124375,12.9496824005254
"188","CA","Riverside",33.7408904141414,-116.202401020202,17.6127470736046
"189","CA","Sacramento",38.4419062919708,-121.428112445255,17.3587840139259
"190","CA","San Benito",36.7725194,-121.3340872,14.1473693116772
"191","CA","San Bernardino",34.6109327731092,-116.128492159664,17.470803858935
"192","CA","San Diego",32.9299988716578,-116.950878877005,18.4093401518337
"193","CA","San Francisco",37.7784786857143,-122.613618171429,17.7881288388959
"194","CA","San Joaquin",37.9489610697674,-121.250707186047,16.4654747622132
"195","CA","San Luis Obispo",35.3977305882353,-120.603704235294,15.8601626539071
"196","CA","San Mateo",37.4524519821429,-122.337428767857,17.7832758861596
"197","CA","Santa Barbara",34.5242620731707,-119.987440560976,16.3970801842356
"198","CA","Santa Clara",37.2070138070175,-121.719361359649,18.4605144134403
"199","CA","Santa Cruz",37.0412075238095,-122.005305904762,15.9868797469483
"200","CA","Shasta",40.7194191212121,-122.142953121212,15.0813803977743
"201","CA","Sierra",39.5600662857143,-120.609982428571,11.0232903937753
"202","CA","Siskiyou",41.6116645454545,-122.645729772727,13.5220625611401
"203","CA","Solano",38.2337684,-122.006633866667,16.2211134145142
"204","CA","Sonoma",38.4483212941176,-122.881735764706,16.530690018728
"205","CA","Stanislaus",37.602441137931,-120.943116344828,16.1039789779426
"206","CA","Sutter",39.0143003,-121.6735522,14.3846862186387
"207","CA","Tehama",40.1304193076923,-122.078539384615,13.8383702723103
"208","CA","Trinity",40.66348025,-123.0689375,12.1534363444496
"209","CA","Tulare",36.229397025,-119.097297225,15.729105581034
"210","CA","Tuolumne",37.976990125,-120.2119755625,13.9765063280435
"211","CA","Ventura",34.1627972765957,-119.077114510638,17.1206446996768
"212","CA","Yolo",38.695292952381,-121.905067714286,15.5120149458701
"213","CA","Yuba",39.315632,-121.288412153846,13.9426259117611
"214","CO","Adams",39.8455195416667,-104.726492416667,16.1451229993454
"215","CO","Alamosa",37.571542,-105.82987375,12.5233074522439
"216","CO","Arapahoe",39.6873171785714,-104.600573892857,16.895567114001
"217","CO","Archuleta",37.1925532,-107.1347994,12.5493573388701
"218","CO","Baca",37.3429403333333,-102.542615833333,10.9328212146075
"219","CO","Bent",37.9806615,-103.015716,11.0641195678406
"220","CO","Boulder",40.08435065625,-105.3414055625,16.3588608647577
"221","CO","Chaffee",38.7184071666667,-106.191506166667,12.9227703233003
"222","CO","Cheyenne",38.82650725,-102.6535915,10.8551068174636
"223","CO","Clear Creek",39.7293976,-105.6707984,12.7208404885288
"224","CO","Conejos",37.2028212857143,-106.01636,11.5579083907967
"225","CO","Costilla",37.2522174285714,-105.470812142857,10.6481829949767
"226","CO","Crowley",38.3015756,-103.7833998,10.5647828036469
"227","CO","Custer",38.108415,-105.2848065,11.4879050486581
"228","CO","Delta",38.8365959,-107.8409976,13.2442623752991
"229","CO","Denver",39.7319495322581,-104.792090564516,16.9494375464338
"230","CO","Dolores",37.7067543333333,-108.582805,10.497007749286
"231","CO","Douglas",39.406145,-104.919534727273,16.5235191582012
"232","CO","Eagle",39.6534494615385,-106.644773615385,14.4636373597764
"233","CO","El Paso",38.858094016129,-104.659454032258,16.6212270096399
"234","CO","Elbert",39.2779128333333,-104.246226166667,13.5947928120037
"235","CO","Fremont",38.3961340833333,-105.411971916667,13.5143392467717
"236","CO","Garfield",39.5075545,-107.653505625,14.2948696629541
"237","CO","Gilpin",39.8404733333333,-105.523051,11.8861083991577
"238","CO","Grand",40.036006875,-105.973981875,12.7619156110274
"239","CO","Gunnison",38.6604889090909,-106.925913181818,12.8374454810952
"240","CO","Hinsdale",38.026256,-107.276581,10.0754641172751
"241","CO","Huerfano",37.664501,-105.09179025,11.5277056972068
"242","CO","Jackson",40.5722355,-106.31136425,10.1551408122961
"243","CO","Jefferson",39.6505392121212,-105.18324730303,16.7535246257299
"244","CO","Kiowa",38.43816325,-102.9142575,10.5400379262313
"245","CO","Kit Carson",39.3109766666667,-102.66238,12.1456164470297
"246","CO","La Plata",37.2300916666667,-107.912681333333,14.38872320255
"247","CO","Lake",39.1982513333333,-106.364214333333,11.773287726767
"248","CO","Larimer",40.564773,-105.312059833333,16.0782770070801
"249","CO","Las Animas",37.2680880909091,-104.340075909091,12.4454910401942
"250","CO","Lincoln",39.1420531666667,-103.4900195,11.4065978151222
"251","CO","Logan",40.727151375,-103.158321625,13.0621015647647
"252","CO","Mesa",39.0880537777778,-108.516033277778,15.1107630669947
"253","CO","Mineral",37.761293,-106.981852,10.052984563682
"254","CO","Moffat",40.570502,-107.977700285714,12.669951305389
"255","CO","Montezuma",37.416888375,-108.591404375,13.1933044831831
"256","CO","Montrose",38.3704583333333,-108.335391666667,13.6245050041779
"257","CO","Morgan",40.308704125,-103.81420275,13.2577592807479
"258","CO","Otero",38.0287736666667,-103.730325,12.568731152199
"259","CO","Ouray",38.132559,-107.728036,11.8148949840301
"260","CO","Park",39.1768777,-105.7416875,12.8736096676833
"261","CO","Phillips",40.6018665,-102.40664275,11.7699369673956
"262","CO","Pitkin",39.2381386666667,-106.8441035,14.3512603772593
"263","CO","Prowers",38.0183464,-102.4122948,12.3206773021537
"264","CO","Pueblo",38.1504858,-104.6040895,14.9112116131013
"265","CO","Rio Blanco",39.9520975,-108.3471925,12.0295323450231
"266","CO","Rio Grande",37.61731175,-106.4315005,12.4076411196866
"267","CO","Routt",40.3868372222222,-106.954636888889,13.806182183656
"268","CO","Saguache",38.1297866666667,-106.061172,11.1110738204319
"269","CO","San Juan",37.848391,-107.680381,9.57657943358351
"270","CO","San Miguel",37.9688412,-108.19474,12.4818655713395
"271","CO","Sedgwick",40.8756266666667,-102.383488333333,10.778810445922
"272","CO","Summit",39.6070604,-106.0917826,13.8822332545531
"273","CO","Teller",38.8818346666667,-105.163477166667,13.3687936754937
"274","CO","Washington",39.8679853333333,-103.226989666667,11.4892063783496
"275","CO","Weld",40.3990717435897,-104.640481923077,15.6948849164762
"276","CO","Yuma",39.9206124285714,-102.485545285714,12.3329211322002
"277","CT","Fairfield",41.2272016555556,-73.3774707777778,18.0821893582209
"278","CT","Hartford",41.7936402037037,-72.7305383055556,17.2449035153622
"279","CT","Litchfield",41.787451,-73.2232305348837,15.7249243138202
"280","CT","Middlesex",41.4626403913043,-72.5346894782609,15.6688038825894
"281","CT","New Haven",41.3919048846154,-72.9410820128205,17.1314260843334
"282","CT","New London",41.4814136153846,-72.0868492820513,15.9549712440785
"283","CT","Tolland",41.8172316,-72.3404922,15.4236229923403
"284","CT","Windham",41.8402787428571,-71.9685906857143,14.870595459725
"285","DE","Kent",39.09809505,-75.56556485,15.087066680824
"286","DE","New Castle",39.6259618148148,-75.6086711111111,16.6629542277665
"287","DE","Sussex",38.6527254347826,-75.305411826087,15.4341668502725
"288","FL","Alachua",29.6942525,-82.37965196875,15.5570151408409
"289","FL","Baker",30.3096595,-82.234791,12.9795894034129
"290","FL","Bay",30.2101355,-85.6653480555556,15.2108912629467
"291","FL","Bradford",29.9422862,-82.1741776,12.8797795831248
"292","FL","Brevard",28.2417157234043,-80.6845882340426,16.4290078524584
"293","FL","Broward",26.1422002873563,-80.2761127931035,17.7240638308264
"294","FL","Calhoun",30.45093025,-85.13487825,12.1025992370539
"295","FL","Charlotte",26.9409978125,-82.0845775625,15.1337495544289
"296","FL","Citrus",28.85831485,-82.4609067,14.8252992831697
"297","FL","Clay",29.9842926,-81.8459218,15.3847108884092
"298","FL","Collier",26.1249884230769,-81.5606381923077,16.7587810652596
"299","FL","Columbia",30.1680085,-82.6472975,13.8623559751958
"300","FL","Dixie",29.55455325,-83.10679675,12.1018059758491
"301","FL","Duval",30.3179123090909,-81.6560958909091,16.9385836897634
"302","FL","Escambia",30.5664714186047,-87.2883582790698,15.7071319532763
"303","FL","Flagler",29.4801155714286,-81.253075,14.7090999533412
"304","FL","Franklin",29.8101498,-84.8050754,12.412619225937
"305","FL","Gadsden",30.590429625,-84.63473025,13.4727117507326
"306","FL","Gilchrist",29.711863,-82.8383795,12.4162241647046
"307","FL","Glades",26.91646,-81.2523445,12.1146479076108
"308","FL","Gulf",29.953456,-85.2309186666667,12.5024108949474
"309","FL","Hamilton",30.4790466666667,-82.9691656666667,12.018175574403
"310","FL","Hardee",27.50719075,-81.81403625,12.8198167055038
"311","FL","Hendry",26.67425775,-81.36462875,13.2409496459384
"312","FL","Hernando",28.5569700769231,-82.4282422307692,14.9353532123947
"313","FL","Highlands",27.3602771111111,-81.3398491111111,14.2438076870466
"314","FL","Hillsborough",27.9241859444444,-82.4235282888889,17.3459883303655
"315","FL","Holmes",30.86093225,-85.82805125,12.3752203063633
"316","FL","Indian River",27.697937125,-80.5190459375,15.6174449202883
"317","FL","Jackson",30.8055313076923,-85.1947841538462,13.4415353959472
"318","FL","Jefferson",30.3658064,-83.8529126,12.442203495597
"319","FL","Lafayette",30.0948725,-83.1670185,11.3655269379655
"320","FL","Lake",28.7994668064516,-81.7143973225807,15.7059549606498
"321","FL","Lee",26.5864049761905,-81.9082146904762,16.8116289569622
"322","FL","Leon",30.4645105263158,-84.2917936842105,15.7088072935378
"323","FL","Levy",29.2833121,-82.7480636,13.3050248764114
"324","FL","Liberty",30.321493,-84.880843,11.6371764273081
"325","FL","Madison",30.5057988,-83.397311,12.4514472456857
"326","FL","Manatee",27.4596881785714,-82.5056596071429,16.0530468129646
"327","FL","Marion",29.2062810789474,-82.0959117894737,15.7080113407438
"328","FL","Martin",27.1464215833333,-80.3148090833333,15.7723516036371
"329","FL","Miami-Dade",25.6822508174603,-80.3580592619048,18.0297387924045
"330","FL","Monroe",24.8327006153846,-81.1445503076923,15.1449347872164
"331","FL","Nassau",30.5986432857143,-81.7561974285714,14.6875082783023
"332","FL","Okaloosa",30.6321912222222,-86.5982295,15.470308568134
"333","FL","Okeechobee",27.3115243333333,-80.8585913333333,13.2834289512923
"334","FL","Orange",28.538948425,-81.3387466125,17.1989393083571
"335","FL","Osceola",28.1773418666667,-81.3270918,15.4045414564974
"336","FL","Palm Beach",26.5878911756757,-80.2842694864865,17.8790838193321
"337","FL","Pasco",28.2917852068966,-82.4695442068966,16.0833335912207
"338","FL","Pinellas",27.8958172837838,-82.7318389324324,17.0933472024739
"339","FL","Polk",27.9940551372549,-81.7075042941177,16.285156435599
"340","FL","Putnam",29.5965606111111,-81.7236622222222,13.8220978142739
"341","FL","Santa Rosa",30.6596093,-87.0403081,15.1591886074059
"342","FL","Sarasota",27.2050575862069,-82.4329975517241,16.472217849413
"343","FL","Seminole",28.72491064,-81.25409716,16.3011541028451
"344","FL","Sumter",28.754367875,-82.08349975,15.0205078373364
"345","FL","Suwannee",30.1710968333333,-82.9447875,13.2690128505382
"346","FL","Taylor",29.9320066,-83.548084,12.7429226775797
"347","FL","Union",29.9980346666667,-82.326767,12.1172086444008
"348","FL","Volusia",29.0552603636364,-81.1757188863636,16.1877355131017
"349","FL","Wakulla",30.1342906666667,-84.3891023333333,13.2274312502464
"350","FL","Walton",30.670062875,-86.17560575,14.4973566207691
"351","FL","Washington",30.6047752,-85.7142134,12.6991059200364
"352","GA","Appling",31.735247,-82.2818086666667,12.5321589921704
"353","GA","Atkinson",31.3352256666667,-82.8898793333333,11.379588339189
"354","GA","Bacon",31.576952,-82.461197,11.9051432129928
"355","GA","Baker",31.37168,-84.338325,10.7594761106019
"356","GA","Baldwin",33.0606916666667,-83.2369676666667,13.4160474020517
"357","GA","Banks",34.36541,-83.503056,12.4842534737743
"358","GA","Barrow",33.9825555,-83.709069,14.0941440653499
"359","GA","Bartow",34.2259155555556,-84.8398427777778,14.439886271097
"360","GA","Ben Hill",31.748753,-83.235412,12.4365333609847
"361","GA","Berrien",31.2713025,-83.25590975,12.4038081283765
"362","GA","Bibb",32.8159099565217,-83.6725,14.9550507555435
"363","GA","Bleckley",32.383904,-83.321095,12.2515860183065
"364","GA","Brantley",31.19838525,-81.94452325,12.3394577774591
"365","GA","Brooks",30.8377722,-83.577782,12.2852903976368
"366","GA","Bryan",32.0402436666667,-81.475017,13.6868359236011
"367","GA","Bulloch",32.4346265714286,-81.7901788571429,13.8902413361341
"368","GA","Burke",33.0411473333333,-81.9587481666667,12.7888160590362
"369","GA","Butts",33.2931233333333,-83.9693776666667,12.799678457418
"370","GA","Calhoun",31.50156875,-84.63635475,11.1851572383124
"371","GA","Camden",30.9061348333333,-81.6776751666667,13.7638266609857
"372","GA","Candler",32.4068645,-82.0674295,11.8724373808957
"373","GA","Carroll",33.6110513636364,-85.074328,14.6506879759372
"374","GA","Catoosa",34.933485,-85.1448436666667,13.980496890917
"375","GA","Charlton",30.64483,-82.0963895,11.7363409792991
"376","GA","Chatham",32.0142506,-81.09388472,15.6880630686796
"377","GA","Chattahoochee",32.292547,-84.736706,11.5326006331634
"378","GA","Chattooga",34.4818855,-85.37885425,12.7055834980174
"379","GA","Cherokee",34.2326524444444,-84.4739353333333,15.6685657962881
"380","GA","Clarke",33.9499344545455,-83.3816992727273,14.5034104957937
"381","GA","Clay",31.5968565,-84.954577,10.3836580733425
"382","GA","Clayton",33.5380888333333,-84.3487645833333,15.1546787197571
"383","GA","Clinch",31.03693425,-82.775995,11.3624978459431
"384","GA","Cobb",33.9289670769231,-84.5725968461538,16.9722142542449
"385","GA","Coffee",31.5608908571429,-82.830854,13.2457095765976
"386","GA","Colquitt",31.19250575,-83.7735065,13.3594129897011
"387","GA","Columbia",33.5151322,-82.242509,15.1457960501466
"388","GA","Cook",31.1689805,-83.4198335,12.3226683098735
"389","GA","Coweta",33.3351238181818,-84.7197554545454,15.0206414913997
"390","GA","Crawford",32.74325325,-83.9321485,12.1822255503892
"391","GA","Crisp",31.8955506666667,-83.763473,12.633895936249
"392","GA","Dade",34.8695296666667,-85.4840833333333,12.4858498063319
"393","GA","Dawson",34.453661,-84.155043,13.1181726083858
"394","GA","Decatur",30.868841,-84.5703028333333,12.9720171182494
"395","GA","Dodge",32.1914856,-83.1313132,12.4341639365683
"396","GA","Dooly",32.1701178,-83.8189018,11.8614674256788
"397","GA","Dougherty",31.5575057777778,-84.1724685555556,14.2729480631509
"398","GA","Douglas",33.7052175,-84.7403751666667,14.8060839324507
"399","GA","Early",31.25730475,-84.8689605,11.9436813806982
"400","GA","Echols",30.768894,-83.037116,10.7157058277371
"401","GA","Effingham",32.299728,-81.346969,13.9623085586892
"402","GA","Elbert",34.1597196666667,-82.913824,12.5877845330145
"403","GA","Emanuel",32.5384795714286,-82.3266734285714,12.5889001114825
"404","GA","Evans",32.16005075,-81.89837925,11.9756652764527
"405","GA","Fannin",34.8992578,-84.337855,12.8069976235725
"406","GA","Fayette",33.4036573333333,-84.5109915,15.1841415868636
"407","GA","Floyd",34.28506275,-85.2203963333333,14.4159622374662
"408","GA","Forsyth",34.2095983333333,-84.1178903333333,15.7702173315911
"409","GA","Franklin",34.339872,-83.1783488,12.7216887764718
"410","GA","Fulton",33.82175296875,-84.4480673229167,17.5367187850857
"411","GA","Gilmer",34.6974206666667,-84.4557496666667,13.062008094313
"412","GA","Glascock",33.227532,-82.615451,10.6361678974314
"413","GA","Glynn",31.20813875,-81.472808,14.4565894070309
"414","GA","Gordon",34.513960625,-84.851778375,13.7096476939284
"415","GA","Grady",30.824724,-84.2974563333333,12.8205499256853
"416","GA","Greene",33.553731,-83.1174675,13.150476474924
"417","GA","Gwinnett",33.9580982068966,-84.0522366551724,16.8203175811422
"418","GA","Habersham",34.59597625,-83.534773375,13.4876535038565
"419","GA","Hall",34.3223363333333,-83.8387503333333,15.1923902397441
"420","GA","Hancock",33.257068,-83.08922,11.4596723566645
"421","GA","Haralson",33.7874408,-85.22624,13.0302524744518
"422","GA","Harris",32.7465298571429,-84.8319905714286,13.7146642822204
"423","GA","Hart",34.372582,-82.9874565,12.9347317470915
"424","GA","Heard",33.2176095,-85.1523165,12.005430283
"425","GA","Henry",33.451595,-84.161359,15.3302315545782
"426","GA","Houston",32.4965980909091,-83.6762888181818,15.0154458223847
"427","GA","Irwin",31.617688,-83.253958,11.8406164014412
"428","GA","Jackson",34.1390434444444,-83.5930533333333,14.0296666427227
"429","GA","Jasper",33.35295025,-83.683552,12.3375920153937
"430","GA","Jeff Davis",31.801424,-82.667035,12.2848098860676
"431","GA","Jefferson",33.0695387142857,-82.4260911428571,12.3969656952282
"432","GA","Jenkins",32.826421,-81.924693,11.3913452290655
"433","GA","Johnson",32.667323,-82.5914005,11.5283164143259
"434","GA","Jones",33.024075,-83.496017,13.2333213977616
"435","GA","Lamar",33.106135,-84.1472005,12.5288624169694
"436","GA","Lanier",30.995219,-83.0562825,11.6387119430223
"437","GA","Laurens",32.4708931111111,-82.9597952222222,13.6009153651
"438","GA","Lee",31.767894,-84.19145,13.5331118373304
"439","GA","Liberty",31.8059926666667,-81.525512,13.7634506540172
"440","GA","Lincoln",33.812714,-82.453456,11.7749896844287
"441","GA","Long",31.780996,-81.773916,12.0748243589202
"442","GA","Lowndes",30.8622912727273,-83.2543576363636,14.4387265698312
"443","GA","Lumpkin",34.534521,-84.002633,13.1818485267391
"444","GA","Macon",32.34479625,-84.02066675,11.9342836070803
"445","GA","Madison",34.1024828333333,-83.2176983333333,13.0304805176231
"446","GA","Marion",32.254152,-84.489818,11.5199308697227
"447","GA","Meriwether",33.0134508333333,-84.668407,12.7069327783281
"448","GA","Miller",31.16251,-84.713359,11.350829975221
"449","GA","Mitchell",31.2736716,-84.1734508,12.6520909120254
"450","GA","Monroe",32.9780634,-83.8915014,13.3398171727126
"451","GA","Montgomery",32.1315732,-82.5208208,11.7068791059939
"452","GA","Morgan",33.65665,-83.4976854,12.9116472843481
"453","GA","Murray",34.8629846,-84.7572352,13.2050782040935
"454","GA","Muscogee",32.5007183,-84.91269745,15.2534678576449
"455","GA","Newton",33.5593993333333,-83.8422341666667,14.391511375149
"456","GA","Oconee",33.82006175,-83.4634315,14.0214265636119
"457","GA","Oglethorpe",33.8388378,-83.1458762,12.3460519555836
"458","GA","Paulding",33.9064306666667,-84.857689,14.92110772878
"459","GA","Peach",32.5893745,-83.821752,13.085489827507
"460","GA","Pickens",34.456812,-84.40828125,13.4679001212525
"461","GA","Pierce",31.40912,-82.1894964,12.619896058815
"462","GA","Pike",33.0721046,-84.3984732,12.7657284326656
"463","GA","Polk",34.0114285,-85.1457755,13.3030769754586
"464","GA","Pulaski",32.275664,-83.49009,11.9291128831067
"465","GA","Putnam",33.320818,-83.355865,12.9676048462062
"466","GA","Quitman",31.8631735,-85.0644255,10.1666976130634
"467","GA","Rabun",34.863583125,-83.404314625,12.5977565610621
"468","GA","Randolph",31.7555796666667,-84.7314496666667,11.343358224976
"469","GA","Richmond",33.3957872222222,-82.0789243888889,15.0240113952583
"470","GA","Rockdale",33.6579646666667,-84.0129026666667,14.3293324883169
"471","GA","Schley",32.209028,-84.277064,11.1629281757847
"472","GA","Screven",32.6687034,-81.6133754,12.2390043937651
"473","GA","Seminole",30.9516555,-84.8509845,11.8603235112487
"474","GA","Spalding",33.2790708,-84.288107,13.8589962018188
"475","GA","Stephens",34.552242,-83.2830475,12.9167551791792
"476","GA","Stewart",32.07428225,-84.786542,10.9314627616048
"477","GA","Sumter",32.0259871428571,-84.1473815714286,13.0130617725132
"478","GA","Talbot",32.7134192,-84.5176494,11.4372424068658
"479","GA","Taliaferro",33.5684855,-82.8264325,9.89278043539244
"480","GA","Tattnall",32.0606141666667,-82.0360498333333,12.5718956183659
"481","GA","Taylor",32.5607412,-84.200363,11.6528265281024
"482","GA","Telfair",31.984557,-82.8974495,11.7945869500027
"483","GA","Terrell",31.79795725,-84.40382175,12.0045682693194
"484","GA","Thomas",30.899212,-83.9360456666667,13.7650032703819
"485","GA","Tift",31.4638068333333,-83.5331796666667,13.45318539585
"486","GA","Toombs",32.1684476666667,-82.365505,12.9776034659638
"487","GA","Towns",34.920378,-83.777947,12.2503765710867
"488","GA","Treutlen",32.383145,-82.557135,11.2677535612704
"489","GA","Troup",33.0292862,-85.0237332,14.0870022710173
"490","GA","Turner",31.7187713333333,-83.5828133333333,11.5933988491201
"491","GA","Twiggs",32.6613526666667,-83.3519756666667,11.7665516634944
"492","GA","Union",34.827667,-84.0048073333333,12.8519893200214
"493","GA","Upson",32.9170523333333,-84.2561596666667,12.9676865591905
"494","GA","Walker",34.807107,-85.2817603333333,13.8519321649648
"495","GA","Walton",33.7604596,-83.695382,14.3850681901539
"496","GA","Ware",31.155126,-82.4608086666667,13.1624567865707
"497","GA","Warren",33.4134406,-82.6765774,11.1933123119818
"498","GA","Washington",32.9380985,-82.7877821666667,12.782343254471
"499","GA","Wayne",31.5811831666667,-81.9284958333333,13.0523035083064
"500","GA","Webster",32.076133,-84.543517,10.2299455276892
"501","GA","Wheeler",32.130926,-82.7756625,10.9979579420369
"502","GA","White",34.6684806666667,-83.7255503333333,13.0096626548874
"503","GA","Whitfield",34.822664625,-84.9848,14.4236476303868
"504","GA","Wilcox",31.992253,-83.4529336,11.457581873931
"505","GA","Wilkes",33.7910193333333,-82.7858956666667,11.869767394966
"506","GA","Wilkinson",32.7864466,-83.191246,11.9538349340116
"507","GA","Worth",31.6224784,-83.8395192,12.7478735435955
"508","HI","Hawaii",19.6795504848485,-155.453163424242,15.1308026193336
"509","HI","Hawaii",19.6795504848485,-155.453163424242,17.4212712490269
"510","HI","Honolulu",23.8018247162162,-164.860030945946,17.1303939557653
"511","HI","Kauai",22.0352248823529,-159.555579588235,14.3416404713651
"512","HI","Maui",20.9051396315789,-156.603270421053,15.1693509398594
"513","IA","Adair",41.3027922,-94.5456262,12.0576596403874
"514","IA","Adams",41.027963,-94.75887825,11.3992191083544
"515","IA","Allamakee",43.3151674285714,-91.3733455714286,12.5988678280375
"516","IA","Appanoose",40.7520776666667,-92.8481445555555,12.2917043211695
"517","IA","Audubon",41.6798498333333,-94.9234238333333,11.931379187959
"518","IA","Benton",42.0293364666667,-92.0300726,13.4847121944389
"519","IA","Black Hawk",42.4667297333333,-92.285328,14.9932620693632
"520","IA","Boone",42.031296875,-93.974503625,13.4476981073293
"521","IA","Bremer",42.76470275,-92.355134125,13.4590213110685
"522","IA","Buchanan",42.5120275454545,-91.8366113636364,13.1601927384607
"523","IA","Buena Vista",42.7668843333333,-95.1290334444444,13.078933819477
"524","IA","Butler",42.7097408333333,-92.8273860833333,12.8192210757838
"525","IA","Calhoun",42.3989788,-94.6109049,12.4231377605239
"526","IA","Carroll",42.0460904166667,-94.83879175,13.2756628379043
"527","IA","Cass",41.320957,-94.95687375,12.7120193868815
"528","IA","Cedar",41.812918625,-91.111342375,13.1266003885817
"529","IA","Cerro Gordo",43.0933236363636,-93.2575401818182,13.94664056958
"530","IA","Cherokee",42.75919075,-95.6419985,12.6135557161817
"531","IA","Chickasaw",43.0749004285714,-92.353364,12.6936644421607
"532","IA","Clarke",41.0288136666667,-93.7721383333333,12.0806681401173
"533","IA","Clay",43.0739587777778,-95.146495,13.0364285116776
"534","IA","Clayton",42.8572058125,-91.322162375,12.9121755372503
"535","IA","Clinton",41.9024949444444,-90.4938666666667,13.9216626602347
"536","IA","Crawford",42.0408541666667,-95.34302725,12.8863929118352
"537","IA","Dallas",41.6831700666667,-94.0392944,14.8848086877965
"538","IA","Davis",40.7601504,-92.372889,11.8894491135749
"539","IA","Decatur",40.739447125,-93.82681875,11.7010965465531
"540","IA","Delaware",42.476835,-91.3761093,12.9628986027533
"541","IA","Des Moines",40.9115628571429,-91.2301918571429,13.7690214942313
"542","IA","Dickinson",43.395121,-95.142641,13.3192418003731
"543","IA","Dubuque",42.4653241111111,-90.8874995,14.7884957516248
"544","IA","Emmet",43.3767748333333,-94.6569473333333,12.3619176035429
"545","IA","Fayette",42.8782079285714,-91.8384595714286,12.9978268380932
"546","IA","Floyd",43.0945512857143,-92.8514908571428,12.8381313467084
"547","IA","Franklin",42.7281625555556,-93.2991717777778,12.5337419641968
"548","IA","Fremont",40.773551,-95.6054417777778,12.1385536872992
"549","IA","Greene",42.055676875,-94.348898625,12.3905294211211
"550","IA","Grundy",42.37364,-92.7852785555555,12.9048713262363
"551","IA","Guthrie",41.6832208888889,-94.4328606666667,12.5778223915249
"552","IA","Hamilton",42.3651268888889,-93.6834781111111,12.941217928724
"553","IA","Hancock",43.08787175,-93.750069125,12.5718366584534
"554","IA","Hardin",42.3434182307692,-93.2312517692308,12.9787216182645
"555","IA","Harrison",41.7090781,-95.8717739,12.8014498735237
"556","IA","Henry",40.9960984,-91.5708818,12.9297126580095
"557","IA","Howard",43.3545413333333,-92.3043888333333,12.3406996877114
"558","IA","Humboldt",42.7993902727273,-94.2376381818182,12.5300890580268
"559","IA","Ida",42.3916778,-95.4713476,12.2749081713056
"560","IA","Iowa",41.6944311538462,-92.037272,18.2302860710745
"561","IA","Iowa",41.6944311538462,-92.037272,13.0347379937694
"562","IA","Jackson",42.1655423333333,-90.5479114166667,13.0128520367572
"563","IA","Jasper",41.6696946666667,-93.07544625,13.6879180665314
"564","IA","Jefferson",41.0201413333333,-91.994886,12.8112052187604
"565","IA","Johnson",41.6708413333333,-91.5940852,15.1980699527732
"566","IA","Jones",42.0906293,-91.137564,13.116461998471
"567","IA","Keokuk",41.3365410666667,-92.1984887333333,12.3003095222781
"568","IA","Kossuth",43.2139936666667,-94.2066164166667,13.0282790459408
"569","IA","Lee",40.644831,-91.4592470909091,13.5168093303367
"570","IA","Linn",42.07182809375,-91.61630384375,15.7057743427336
"571","IA","Louisa",41.2241867142857,-91.2420277142857,12.4095072451605
"572","IA","Lucas",41.0183952,-93.3314062,12.0181574735997
"573","IA","Lyon",43.37631,-96.232623,12.6034350149352
"574","IA","Madison",41.299250375,-93.98950425,12.961043728482
"575","IA","Mahaska",41.3226801111111,-92.5920943333333,13.1300676233398
"576","IA","Marion",41.3058335,-93.0885582857143,13.6668724890718
"577","IA","Marshall",42.0277122307692,-93.0160248461538,13.7047544008673
"578","IA","Mills",41.057595875,-95.600183875,12.935612023531
"579","IA","Mitchell",43.37637275,-92.787826375,12.4526787849721
"580","IA","Monona",42.0502381,-95.947019,12.2934743629937
"581","IA","Monroe",41.0202596666667,-92.949125,11.9105532748652
"582","IA","Montgomery",41.0554736666667,-95.1017466666667,12.3808995205619
"583","IA","Muscatine",41.4823516,-91.0750736,13.8735350966098
"584","IA","Osceola",43.3677398571429,-95.6207204285714,11.9483505893212
"585","IA","Page",40.6839975833333,-95.15186,12.6986782889533
"586","IA","Palo Alto",43.0670375,-94.698136625,12.3181594886417
"587","IA","Plymouth",42.7600946,-96.2802137,13.5427840908361
"588","IA","Pocahontas",42.743862125,-94.715782,12.2030731515424
"589","IA","Polk",41.6613190384615,-93.5933323333333,16.4507365573985
"590","IA","Pottawattamie",41.3511258333333,-95.5895258888889,14.582683921619
"591","IA","Poweshiek",41.6753815555556,-92.4782372222222,13.045287929724
"592","IA","Ringgold",40.7420537142857,-94.2121704285714,11.5158711222588
"593","IA","Sac",42.391178375,-95.107452375,12.4907025648979
"594","IA","Scott",41.6085602272727,-90.6002516363636,15.4513862909344
"595","IA","Shelby",41.6621509090909,-95.3722317272727,12.7206850902307
"596","IA","Sioux",43.0653820769231,-96.1550621538462,13.7162613302873
"597","IA","Story",42.0213756666667,-93.5262336111111,14.6979677358509
"598","IA","Tama",42.0962810769231,-92.5070537692308,12.9804679607906
"599","IA","Taylor",40.7496947142857,-94.6673811428571,11.7316030587248
"600","IA","Union",41.0107284285714,-94.2386888571429,12.4516702080744
"601","IA","Van Buren",40.7363339,-91.9418263,11.8130670937717
"602","IA","Wapello",41.0482718571429,-92.4912864285714,13.4574703968262
"603","IA","Warren",41.3503987692308,-93.5778630769231,14.1130147352268
"604","IA","Washington",41.348500125,-91.69861475,13.1872312193099
"605","IA","Wayne",40.726735125,-93.357067,11.6236256989235
"606","IA","Webster",42.4272442142857,-94.1751575714286,13.6431860636048
"607","IA","Winnebago",43.3938121428571,-93.7199861428571,12.494610601609
"608","IA","Winneshiek",43.241360375,-91.815424,13.1018402105819
"609","IA","Woodbury",42.411739625,-96.1718137916667,14.6224684504948
"610","IA","Worth",43.3463445714286,-93.2885341428571,12.1390136172482
"611","IA","Wright",42.6995053333333,-93.7278504444444,12.6502487215089
"612","ID","Ada",43.5150167857143,-116.249348761905,16.2323944905135
"613","ID","Adams",44.7888008,-116.4388196,11.0536797611774
"614","ID","Bannock",42.6467079166667,-112.247694333333,14.2244396595136
"615","ID","Bear Lake",42.2347397777778,-111.341718555556,11.5816583026513
"616","ID","Benewah",47.1805773333333,-116.7170045,11.9172165508506
"617","ID","Bingham",43.1927921,-112.4185735,13.6335317424278
"618","ID","Blaine",43.510648,-114.280500142857,14.1145568127951
"619","ID","Boise",44.0242208333333,-115.875148333333,11.8647295655884
"620","ID","Bonner",48.2969475555556,-116.620858333333,13.6087348201529
"621","ID","Bonneville",43.4433661818182,-111.710396363636,14.7208677357797
"622","ID","Boundary",48.7412212,-116.4178416,12.1551845322036
"623","ID","Butte",43.7574986666667,-113.251845333333,10.7054218711718
"624","ID","Camas",43.4080913333333,-114.739704333333,9.91778485723695
"625","ID","Canyon",43.6288476,-116.7172884,14.9356837312095
"626","ID","Caribou",42.7447618,-111.5587412,11.8821552658296
"627","ID","Cassia",42.3026601666667,-113.606110333333,12.8721081023083
"628","ID","Clark",44.2246085,-112.2630675,9.21820933035488
"629","ID","Clearwater",46.5264891666667,-116.132742,11.8446220304914
"630","ID","Custer",44.2685142,-114.288956,11.4309341934119
"631","ID","Elmore",43.148632,-115.407728833333,12.9218371159555
"632","ID","Franklin",42.1715458333333,-111.878548666667,12.2195365983579
"633","ID","Fremont",44.1259608888889,-111.571232555556,12.209282488468
"634","ID","Gem",44.0092215,-116.43516175,12.5120746289503
"635","ID","Gooding",42.845388,-114.81356675,11.4749535717167
"636","ID","Idaho",45.8144171538462,-115.935351076923,12.4544979041771
"637","ID","Idaho",45.8144171538462,-115.935351076923,17.3381583164332
"638","ID","Jefferson",43.756035625,-112.123688375,13.0525458802928
"639","ID","Jerome",42.639914,-114.230861666667,12.484215615063
"640","ID","Kootenai",47.7259660714286,-116.728704642857,14.9886160302969
"641","ID","Latah",46.7881884166667,-116.736919833333,13.5243437542163
"642","ID","Lemhi",45.0529276,-113.8422193,11.8876357892693
"643","ID","Lewis",46.270894,-116.3841674,11.281598520848
"644","ID","Lincoln",43.002988,-114.305483,11.3368801711678
"645","ID","Madison",43.797793,-111.7116675,13.0354559950071
"646","ID","Minidoka",42.67784075,-113.689449,12.8567715098253
"647","ID","Nez Perce",46.4041758,-116.7277994,13.6663003206948
"648","ID","Oneida",42.23565,-112.5776025,11.1495279752707
"649","ID","Owyhee",43.1555052,-116.4167626,11.9168160007564
"650","ID","Payette",43.9986696666667,-116.821572,12.9640309663137
"651","ID","Power",42.546289,-112.774817333333,11.7300428956367
"652","ID","Shoshone",47.4697834166667,-115.949324583333,12.345443206978
"653","ID","Teton",43.75159225,-111.16409675,12.1751906682785
"654","ID","Twin Falls",42.4478364444444,-114.544272222222,14.1406293011886
"655","ID","Valley",44.6955836,-115.7287446,12.3998162219891
"656","ID","Washington",44.443247,-116.734075666667,11.9313331224473
"657","IL","Adams",40.0131521764706,-91.1834452941176,14.3240880565896
"658","IL","Alexander",37.176315375,-89.339913,11.4415690883184
"659","IL","Bond",38.911973,-89.4343338571429,12.7198419324654
"660","IL","Boone",42.3475092,-88.7999046,14.1892655046497
"661","IL","Brown",39.9767376666667,-90.789846,11.6457503580827
"662","IL","Bureau",41.3941034583333,-89.4793437083333,13.6398098349987
"663","IL","Calhoun",39.0950695,-90.65650075,11.5801541144657
"664","IL","Carroll",42.0539508571429,-89.87305,12.8234855321918
"665","IL","Cass",39.9650378333333,-90.2267325,12.539483056687
"666","IL","Champaign",40.1232916969697,-88.187236,15.4064848622158
"667","IL","Christian",39.5352898461538,-89.3115566153846,13.5692160800509
"668","IL","Clark",39.3344078333333,-87.7915135,12.826710959301
"669","IL","Clay",38.7415102857143,-88.500363,12.5115737616292
"670","IL","Clinton",38.577905,-89.4903451428571,13.7982301073048
"671","IL","Coles",39.5089735714286,-88.2331112857143,13.8769339195267
"672","IL","Cook",41.87825107109,-87.7460398388626,18.9490582227495
"673","IL","Crawford",39.03740975,-87.74003525,13.0737464982202
"674","IL","Cumberland",39.2856386,-88.2312544,12.3394096442614
"675","IL","Douglas",39.7581794444444,-88.1870016666667,13.0794642270889
"676","IL","Edgar",39.703784375,-87.801172,12.8758155707111
"677","IL","Edwards",38.4175882,-88.0410924,11.8543070595203
"678","IL","Effingham",39.0755055,-88.5818419,13.7868301797953
"679","IL","Fayette",38.9890523,-88.9737557,12.8999895297922
"680","IL","Ford",40.6766724444444,-88.252077,12.7259164826945
"681","IL","Franklin",37.9905948235294,-88.9746341764706,13.4833512074646
"682","IL","Fulton",40.46838625,-90.2245579,13.5202276723796
"683","IL","Gallatin",37.773708,-88.2340311666667,11.7371724073246
"684","IL","Greene",39.347294,-90.3774862,12.4432847687633
"685","IL","Grundy",41.2556936666667,-88.3902014444444,14.2083698792815
"686","IL","Hamilton",38.068676,-88.5423824,12.0851189636834
"687","IL","Hancock",40.4084887777778,-91.1712307222222,12.9434926596106
"688","IL","Hardin",37.479996,-88.26733175,11.2091953080968
"689","IL","Henderson",40.846657,-90.954199625,11.9671426412841
"690","IL","Henry",41.3226725625,-90.165656375,14.1209866241107
"691","IL","Iroquois",40.7731842916667,-87.819951625,13.4975135975101
"692","IL","Jackson",37.787427625,-89.3990095625,13.8756475314878
"693","IL","Jasper",39.0259035714286,-88.1266495714286,12.3400351951931
"694","IL","Jefferson",38.2654626666667,-88.9056039166667,13.5984571738767
"695","IL","Jersey",39.05057,-90.3621285,13.1695713381689
"696","IL","Jo Daviess",42.4025192222222,-90.2031921111111,13.3103621217626
"697","IL","Johnson",37.457608,-88.8685191818182,12.3654666976804
"698","IL","Kane",41.9399981724138,-88.4189170689655,16.5712986237312
"699","IL","Kankakee",41.1329069375,-87.914527625,14.7249257070987
"700","IL","Kendall",41.61197325,-88.488756125,15.0953910710888
"701","IL","Knox",40.9621154705882,-90.2146128823529,13.956336282149
"702","IL","Lake",42.3114146571429,-87.9252790285714,17.3567216763857
"703","IL","Lawrence",38.671765,-87.7114498,12.6141044568357
"704","IL","Lee",41.7574502,-89.2711019333333,13.6387029712577
"705","IL","Livingston",40.9107667058824,-88.5468650588235,13.7785270204663
"706","IL","Logan",40.1144678571429,-89.3731612142857,13.3964646468067
"707","IL","Macon",39.863201,-88.96494645,14.8261084213034
"708","IL","Macoupin",39.251432,-89.9171838571429,13.8549245216742
"709","IL","Madison",38.829648,-89.9598106071429,15.7502902786967
"710","IL","Marion",38.6510110909091,-88.9393411818182,13.5654299396553
"711","IL","Marshall",41.0174277777778,-89.3053842222222,12.6829432679162
"712","IL","Mason",40.2721137777778,-89.8785786666667,12.6868307376738
"713","IL","Massac",37.217041,-88.7212696666667,12.5639358831682
"714","IL","Menard",40.0157905,-89.822224,12.7892542790882
"715","IL","Mercer",41.2011089166667,-90.66478075,12.9920678864553
"716","IL","Monroe",38.2800472857143,-90.1512381428571,13.9684367741561
"717","IL","Montgomery",39.2045078125,-89.4890260625,13.3427559482392
"718","IL","Morgan",39.7218942727273,-90.2389294545455,13.6030596361888
"719","IL","Moultrie",39.6385758,-88.6816508,12.8253606691332
"720","IL","Ogle",42.052116375,-89.2398675,14.1206491253418
"721","IL","Peoria",40.7442787291667,-89.6706954375,15.6114733475178
"722","IL","Perry",38.0584998,-89.3850248,12.8529350208863
"723","IL","Piatt",39.9847432,-88.6220436,13.1107198539092
"724","IL","Pike",39.6242434666667,-90.8336019333333,12.6605564631179
"725","IL","Pope",37.3402415,-88.54321375,11.0147857010114
"726","IL","Pulaski",37.2290627777778,-89.1038831111111,11.4423527747981
"727","IL","Putnam",41.227059,-89.2826135714286,12.0823897398176
"728","IL","Randolph",38.0673917333333,-89.8043087333333,13.4141624633138
"729","IL","Richland",38.7043136666667,-88.0712395,12.7407397881016
"730","IL","Rock Island",41.4998408095238,-90.5565974761905,15.1140084157817
"731","IL","Saline",37.757371,-88.5609617142857,13.1102422119939
"732","IL","Sangamon",39.7600943793103,-89.6131467586207,15.6219571415542
"733","IL","Schuyler",40.1409801666667,-90.57041,11.9343032915384
"734","IL","Scott",39.6121825,-90.42888925,11.7125219473084
"735","IL","Shelby",39.3858523846154,-88.7927582307692,13.0829570470252
"736","IL","Stark",41.0810022857143,-89.7701174285714,11.9224091544202
"737","IL","Stephenson",42.3700798,-89.6677502,13.8266799474436
"738","IL","Tazewell",40.5227478235294,-89.5165161176471,15.2444603518289
"739","IL","Union",37.4632761428571,-89.2730302857143,12.7693787586888
"740","IL","Vermilion",40.156735625,-87.7501809583333,14.241961253526
"741","IL","Wabash",38.4217618,-87.825522,12.5812881461791
"742","IL","Warren",40.86812175,-90.628344625,12.9123137256013
"743","IL","Washington",38.3401706,-89.3364935,12.845803226453
"744","IL","Wayne",38.4116296363636,-88.4296206363636,12.6379621990735
"745","IL","White",38.1089894545455,-88.1709817272727,12.7513605637262
"746","IL","Whiteside",41.7221016666667,-89.91568175,14.121169327009
"747","IL","Will",41.4885799166667,-87.9884589583333,16.8726576821981
"748","IL","Williamson",37.7725338181818,-88.9848115454545,14.1816289716505
"749","IL","Winnebago",42.3152933214286,-89.1214274642857,15.7282878253586
"750","IL","Woodford",40.7608404,-89.2257279,14.1016551991741
"751","IN","Adams",40.7335705714286,-84.9440958571429,13.401024886635
"752","IN","Allen",41.0907367777778,-85.0861727777778,15.9980112692353
"753","IN","Bartholomew",39.1955822,-85.8315828,14.647375657836
"754","IN","Benton",40.57943125,-87.306328375,12.1153598813965
"755","IN","Blackford",40.4942835,-85.311033,12.3463909548437
"756","IN","Boone",40.0205451666667,-86.4832555,14.7672383154038
"757","IN","Brown",39.2071403333333,-86.2413336666667,12.7937481931479
"758","IN","Carroll",40.5648436666667,-86.5430726666667,13.0528096343726
"759","IN","Cass",40.7742133,-86.2982982,13.5234415436054
"760","IN","Clark",38.4364288421053,-85.6851153157895,14.7337817274766
"761","IN","Clay",39.4418926363636,-87.0971118181818,13.1484891089305
"762","IN","Clinton",40.3094197777778,-86.5043535555556,13.4037109290757
"763","IN","Crawford",38.295334,-86.456817625,12.0372633850831
"764","IN","Daviess",38.7500671666667,-87.0779895,13.369901350513
"765","IN","Dearborn",39.1422333333333,-84.9608816666667,14.0966112707013
"766","IN","Decatur",39.3138851666667,-85.4481505,13.2278812806761
"767","IN","Delaware",40.2082130714286,-85.4040809285714,14.5619264305285
"768","IN","Dubois",38.345847,-86.8822463333333,14.0594045225777
"769","IN","Elkhart",41.6104356923077,-85.8720363846154,15.2793007708873
"770","IN","Fayette",39.6333023333333,-85.2043256666667,12.9006712722324
"771","IN","Floyd",38.321181,-85.9115325,14.5783470341183
"772","IN","Fountain",40.107991,-87.208674125,12.809111841374
"773","IN","Franklin",39.4102411428571,-85.0276175714286,13.2228908326183
"774","IN","Fulton",41.03022625,-86.223950625,12.9667499616336
"775","IN","Gibson",38.3171043636364,-87.5465295454545,13.5577289769445
"776","IN","Grant",40.4971904545455,-85.6298842727273,14.0100735484028
"777","IN","Greene",39.0499625833333,-86.9615379166667,13.3577548161858
"778","IN","Hamilton",40.0641167692308,-86.0767932307692,16.3755447016837
"779","IN","Hancock",39.843372625,-85.769396875,14.5864489904955
"780","IN","Harrison",38.2075945384615,-86.1082081538461,13.6233640944512
"781","IN","Hendricks",39.7543529166667,-86.5234274166667,15.2954707932131
"782","IN","Henry",39.9186531333333,-85.4105326,13.741886622492
"783","IN","Howard",40.4527871111111,-86.1318524444444,14.4267836882994
"784","IN","Huntington",40.836832,-85.4655936666667,13.5628326291102
"785","IN","Jackson",38.895933,-86.0824217777778,13.7834418084388
"786","IN","Jasper",41.068494,-87.1157186666667,13.572693496018
"787","IN","Jay",40.4339331666667,-85.037502,12.7923248003403
"788","IN","Jefferson",38.816803,-85.4394346,13.4303126750923
"789","IN","Jennings",38.982012875,-85.634451125,13.1245589653362
"790","IN","Johnson",39.4736314444444,-86.0817721111111,15.2192815590542
"791","IN","Knox",38.7383268333333,-87.36024225,13.5622956105547
"792","IN","Kosciusko",41.2348783125,-85.879243375,14.4648322797842
"793","IN","Lake",41.498674625,-87.3992400625,16.2538140378665
"794","IN","Lawrence",38.8451031,-86.520717,13.6860690759557
"795","IN","Madison",40.1427121176471,-85.7184411176471,14.7417440959108
"796","IN","Marion",39.7859691639344,-86.1422406393443,16.8970644551987
"797","IN","Marshall",41.3331985555556,-86.2740204444444,13.8224831925503
"798","IN","Martin",38.7788486666667,-86.8671903333333,12.2338288532001
"799","IN","Miami",40.7631471,-86.0572339,13.3322968586838
"800","IN","Monroe",39.175124875,-86.53307175,14.9025295702163
"801","IN","Montgomery",40.0502521764706,-86.9144327647059,13.6018939805736
"802","IN","Morgan",39.5026861666667,-86.4969221666667,14.3829964381771
"803","IN","Newton",40.9992665555556,-87.3858445555556,12.6486022977752
"804","IN","Noble",41.3846112727273,-85.4320807272727,13.7456394437922
"805","IN","Ohio",38.958134,-84.984085,11.7438705053765
"806","IN","Orange",38.55186875,-86.52228275,12.7183212563697
"807","IN","Owen",39.3436151666667,-86.7759238333333,12.8745146509208
"808","IN","Parke",39.7556621111111,-87.2492735555555,12.5985605798478
"809","IN","Perry",38.054826375,-86.63383875,12.8034795538093
"810","IN","Pike",38.3688091666667,-87.1875201666667,12.4807758557538
"811","IN","Porter",41.4586223,-87.0940228,15.4276019468139
"812","IN","Posey",38.1079321666667,-87.8275551666667,13.4614749849625
"813","IN","Pulaski",41.0440968,-86.6880346,12.59394727773
"814","IN","Putnam",39.702308,-86.845256375,13.4555846209839
"815","IN","Randolph",40.1387985555556,-85.0552565555556,13.0550519486428
"816","IN","Ripley",39.1223068181818,-85.2362498181818,13.3107846265262
"817","IN","Rush",39.6424825,-85.485244625,12.7858691405411
"818","IN","Scott",38.705128,-85.7188613333333,12.878963545909
"819","IN","Shelby",39.562740125,-85.7881975,13.8424737615425
"820","IN","Spencer",38.0491693333333,-86.9783721333333,13.0413008165239
"821","IN","Starke",41.27792,-86.6501453333333,12.9390845625851
"822","IN","Steuben",41.6374235,-85.0214648333333,13.577376457711
"823","IN","Sullivan",39.0898892727273,-87.4223340909091,12.8761968189326
"824","IN","Switzerland",38.841555,-84.9787804,11.9316357998284
"825","IN","Tippecanoe",40.3846363529412,-86.8733263529412,15.158620761853
"826","IN","Tipton",40.3159858333333,-86.0602043333333,12.9016369026057
"827","IN","Union",39.607982,-84.927749,11.8026579339217
"828","IN","Vanderburgh",37.9974812162162,-87.5680958378378,15.2835139300107
"829","IN","Vermillion",39.8440383333333,-87.4500338888889,12.6548685983604
"830","IN","Vigo",39.4510476086957,-87.3799945217391,14.54359621907
"831","IN","Wabash",40.8552738,-85.7812484,13.4381196554836
"832","IN","Warren",40.304125,-87.40616975,12.2791046819297
"833","IN","Warrick",38.092261625,-87.274052375,14.4578132907584
"834","IN","Washington",38.550758,-86.1365776666667,13.0843520126943
"835","IN","Wayne",39.8565245,-85.0351094285714,14.0485806774731
"836","IN","Wells",40.72188625,-85.20949575,13.3455853256454
"837","IN","White",40.7636612222222,-86.835978,13.2002110623926
"838","IN","Whitley",41.15462825,-85.49826675,13.6025957640855
"839","KS","Allen",37.8678024285714,-95.2851822857143,12.4002939519572
"840","KS","Anderson",38.2107148333333,-95.2857976666667,11.9258096502049
"841","KS","Atchison",39.5027698333333,-95.2984861666667,12.6491899295878
"842","KS","Barber",37.236921375,-98.624044125,12.0121116120792
"843","KS","Barton",38.4739898571429,-98.808558,13.4030978712267
"844","KS","Bourbon",37.8715624285714,-94.8599262857143,12.3705314422683
"845","KS","Brown",39.7827417142857,-95.5862331428571,12.3089631131294
"846","KS","Butler",37.7844026,-96.9094435333333,14.4189824528421
"847","KS","Chase",38.3408818,-96.6308918,10.8492011550835
"848","KS","Chautauqua",37.0752544,-96.1862716,11.0783661966577
"849","KS","Cherokee",37.1856893333333,-94.814239,12.8108884874252
"850","KS","Cheyenne",39.715407,-101.721025,11.0188586250192
"851","KS","Clark",37.2838926666667,-99.8675356666667,10.7593273975011
"852","KS","Clay",39.3065044,-97.133983,12.2041307612928
"853","KS","Cloud",39.484186,-97.6231995,12.1198663988816
"854","KS","Coffey",38.2081556,-95.7264204,12.3470903208817
"855","KS","Comanche",37.2155843333333,-99.3594103333333,10.7859525919262
"856","KS","Cowley",37.2983983333333,-96.864114,13.4679128622971
"857","KS","Crawford",37.4999325384615,-94.7719206153846,13.5035125686301
"858","KS","Decatur",39.78044175,-100.368006,11.1252462460259
"859","KS","Dickinson",38.89224425,-97.123144,12.9395072777678
"860","KS","Doniphan",39.7889894285714,-95.1315197142857,12.0493837471499
"861","KS","Douglas",38.903999875,-95.290673,14.8110334537255
"862","KS","Edwards",37.922406,-99.34875025,11.314974401288
"863","KS","Elk",37.3884564,-96.2885102,10.772497979829
"864","KS","Ellis",38.8532598571429,-99.232592,13.5540548806065
"865","KS","Ellsworth",38.6785626,-98.2619372,11.7911327934595
"866","KS","Finney",38.0016313333333,-100.792822,13.6618569212573
"867","KS","Ford",37.7025584,-99.840656,13.467384680681
"868","KS","Franklin",38.53858725,-95.26926575,13.1732180756226
"869","KS","Geary",39.0893526666667,-96.831736,13.4107177238293
"870","KS","Gove",39.056674,-100.4107118,11.2908313627916
"871","KS","Graham",39.3566785,-99.89434625,11.075907768349
"872","KS","Grant",37.562467,-101.308565,12.1218047744116
"873","KS","Gray",37.710999,-100.399182,12.0397760012094
"874","KS","Greeley",38.469704,-101.747853,10.5159668300286
"875","KS","Greenwood",37.8516972222222,-96.1674957777778,11.7155805538571
"876","KS","Hamilton",37.9952766666667,-101.774556,10.5833975063141
"877","KS","Harper",37.1864935714286,-98.0183051428571,12.1529724565334
"878","KS","Harvey",38.0508085714286,-97.4115561428571,13.5866682998209
"879","KS","Haskell",37.4616295,-100.9236285,11.3898647769747
"880","KS","Hodgeman",38.0727145,-99.8016065,10.8367337250597
"881","KS","Jackson",39.4394905555556,-95.7505527777778,12.5569513235284
"882","KS","Jefferson",39.2256804444444,-95.3938305555556,12.9583633516248
"883","KS","Jewell",39.7745471428571,-98.1540751428571,11.085291432091
"884","KS","Johnson",38.9233742608696,-94.7806802391304,17.0154020350543
"885","KS","Kearny",37.951749,-101.2279895,11.5321200643176
"886","KS","Kingman",37.52273,-98.159514,12.1940152463669
"887","KS","Kiowa",37.604411,-99.2617556666667,11.0465631979108
"888","KS","Labette",37.15348675,-95.315244875,12.9198578886268
"889","KS","Lane",38.5265895,-100.5327185,10.9342848471758
"890","KS","Leavenworth",39.207898,-94.9977748571429,14.4232332835257
"891","KS","Lincoln",39.07660375,-98.2260725,10.9406144323503
"892","KS","Linn",38.2271284285714,-94.8096384285714,12.0668450603608
"893","KS","Logan",38.9713053333333,-101.042736333333,11.3192072118407
"894","KS","Lyon",38.487124125,-96.1385875,13.3267219914002
"895","KS","Marion",38.3726516666667,-97.090118,12.431713077043
"896","KS","Marshall",39.8256513333333,-96.5384889166667,12.4558191786389
"897","KS","Meade",37.2534133333333,-100.320956666667,11.7321493443976
"898","KS","Miami",38.5792781666667,-94.8137353333333,13.7285235443142
"899","KS","Mitchell",39.4009673333333,-98.2408833333333,11.9910460623179
"900","KS","Montgomery",37.1432522,-95.7828621,13.3525683381786
"901","KS","Morris",38.7107052,-96.6742974,11.6524786899132
"902","KS","Morton",37.092142,-101.766804,11.3127413177909
"903","KS","Nemaha",39.775468,-95.9617753333333,12.5025670252943
"904","KS","Neosho",37.5604236666667,-95.3168546666667,12.6253716228938
"905","KS","Ness",38.516886,-99.9215557142857,11.4863042438094
"906","KS","Norton",39.7785125,-99.8772575,11.6420132493752
"907","KS","Osage",38.6721683333333,-95.6591994444444,12.7048762940688
"908","KS","Osborne",39.4050292,-98.797956,11.3535427887553
"909","KS","Ottawa",39.11644225,-97.67671825,11.786686082081
"910","KS","Pawnee",38.15179875,-99.2836575,11.8557347230473
"911","KS","Phillips",39.747557875,-99.34582925,11.6992141423253
"912","KS","Pottawatomie",39.36309075,-96.3222791666667,13.188811948235
"913","KS","Pratt",37.6639304,-98.7967438,12.4384098058122
"914","KS","Rawlins",39.82618125,-101.06813175,11.2838518656252
"915","KS","Reno",37.9713946666667,-98.0287118,14.1481712541712
"916","KS","Republic",39.8231292222222,-97.5736666666667,11.597266613404
"917","KS","Rice",38.3336275,-98.24660575,12.3049537148402
"918","KS","Riley",39.27987575,-96.7055455,14.1328662318932
"919","KS","Rooks",39.325479,-99.335225,11.6554141212625
"920","KS","Rush",38.541607625,-99.31889225,11.1826420380981
"921","KS","Russell",38.960743,-98.7972655,11.929238191018
"922","KS","Saline",38.7696212857143,-97.6480837142857,14.1319943500263
"923","KS","Scott",38.482307,-100.906427,12.106567177799
"924","KS","Sedgwick",37.6857949464286,-97.3949023035714,16.4438962909625
"925","KS","Seward",37.0897003333333,-100.837753,12.9855947505868
"926","KS","Shawnee",39.0356472553191,-95.7535338723404,15.2952929853019
"927","KS","Sheridan",39.448069,-100.5041175,11.330047753551
"928","KS","Sherman",39.3632996666667,-101.753472,11.8338996534295
"929","KS","Smith",39.7631156666667,-98.7628485,11.3922482452005
"930","KS","Stafford",38.03683425,-98.78993275,11.5175049630439
"931","KS","Stanton",37.54964,-101.806292,11.0785051724066
"932","KS","Stevens",37.2842345,-101.243794,11.8684157074272
"933","KS","Sumner",37.2687135,-97.5063806666667,13.1885330674622
"934","KS","Thomas",39.4048238,-101.0335938,12.2718510227285
"935","KS","Trego",38.9498373333333,-99.8779816666667,11.2353521266667
"936","KS","Wabaunsee",38.9514628571429,-96.1913161428571,11.9813653722398
"937","KS","Wallace",38.908882,-101.758107,10.681113739674
"938","KS","Washington",39.7702417272727,-97.0813000909091,11.774604879597
"939","KS","Wichita",38.480788,-101.288491,11.1193790462556
"940","KS","Wilson",37.573111,-95.7382598571429,12.0785574052294
"941","KS","Woodson",37.90297525,-95.70097775,11.0200543565644
"942","KS","Wyandotte",39.0988721764706,-94.7139246470588,14.7566183824857
"943","KY","Adair",37.084279625,-85.33527375,12.3521969140122
"944","KY","Allen",36.73099025,-86.14662375,12.5860626683294
"945","KY","Anderson",38.006484,-84.979923,13.0781146851224
"946","KY","Ballard",37.0714026666667,-88.9326023333333,12.0134825472594
"947","KY","Barren",36.9382704444444,-85.923644,13.5133508552207
"948","KY","Bath",38.130183,-83.7497204,11.9750922159477
"949","KY","Bell",36.7503209090909,-83.7059857272727,12.6464414696462
"950","KY","Boone",38.965035875,-84.729009375,15.0636764044393
"951","KY","Bourbon",38.21984675,-84.169586,12.8683352704257
"952","KY","Boyd",38.3755975,-82.6947018333333,13.7655710835908
"953","KY","Boyle",37.6090503333333,-84.898715,13.2635590740711
"954","KY","Bracken",38.690613,-84.061536,11.9077878961605
"955","KY","Breathitt",37.5119526666667,-83.3115872222222,12.0695768634416
"956","KY","Breckinridge",37.7744186428571,-86.3928449285714,12.719635519606
"957","KY","Bullitt",37.9791102,-85.6769966,14.338686402819
"958","KY","Butler",37.2207371,-86.7050984,12.1769630423836
"959","KY","Caldwell",37.1708895,-87.926819,12.3041789126365
"960","KY","Calloway",36.6391944285714,-88.2551995714286,13.4094682833275
"961","KY","Campbell",39.0109133636364,-84.4016521818182,14.7066405977159
"962","KY","Carlisle",36.84763675,-89.002029,11.51331538894
"963","KY","Carroll",38.66926425,-85.04988175,12.1971933409236
"964","KY","Carter",38.2911635555556,-83.0828932222222,12.9164898372551
"965","KY","Casey",37.258536,-84.8910216666667,12.1263040669465
"966","KY","Christian",36.8290438,-87.5079606,13.9835556898394
"967","KY","Clark",37.9673046666667,-84.158752,13.4792934887851
"968","KY","Clay",37.1480663333333,-83.7417094444445,12.2969959442999
"969","KY","Clinton",36.748735,-85.1586605,11.6854744251154
"970","KY","Crittenden",37.31285,-88.149208,11.8791159918076
"971","KY","Cumberland",36.8282394,-85.4460132,11.3641005778983
"972","KY","Daviess",37.7372333333333,-87.0916586666667,14.6122791928912
"973","KY","Edmonson",37.2305152857143,-86.2628622857143,12.0651482778004
"974","KY","Elliott",38.131568,-83.079708,11.2222656300478
"975","KY","Estill",37.709292,-83.9615276666667,12.1489254080984
"976","KY","Fayette",38.0278421428571,-84.4812272040816,15.8823707857885
"977","KY","Fleming",38.3451484285714,-83.701395,12.2967676463061
"978","KY","Floyd",37.4981001818182,-82.7312276363636,13.2632585904291
"979","KY","Franklin",38.2334643333333,-84.8742422222222,13.9646251493878
"980","KY","Fulton",36.547805,-89.144572,11.3729389973912
"981","KY","Gallatin",38.7421326666667,-84.859701,11.7937792778284
"982","KY","Garrard",37.64490075,-84.52586175,12.5432053782615
"983","KY","Grant",38.6534893333333,-84.6320091666667,12.9636395901764
"984","KY","Graves",36.7518939166667,-88.6670345,13.3788395719298
"985","KY","Grayson",37.4695351428571,-86.3454228571429,12.8354676623592
"986","KY","Green",37.3153435,-85.5666885,11.8778046617994
"987","KY","Greenup",38.578998875,-82.8455585,13.5514681862621
"988","KY","Hancock",37.827685,-86.80275125,12.0875762304792
"989","KY","Hardin",37.691407,-85.9912133333333,14.626991289286
"990","KY","Harlan",36.8641236538462,-83.2260534615385,12.8183052801427
"991","KY","Harrison",38.399515,-84.335117,12.7111115585344
"992","KY","Hart",37.2696775,-85.8675833333333,12.35822275412
"993","KY","Henderson",37.793642625,-87.585369125,13.7964276316212
"994","KY","Henry",38.4587049090909,-85.142894,12.6066056105928
"995","KY","Hickman",36.7067435,-89.040687,11.3391790364459
"996","KY","Hopkins",37.2768324,-87.5293528,13.8293276606358
"997","KY","Jackson",37.408092625,-83.99054975,11.9306945675346
"998","KY","Jefferson",38.2045605342466,-85.678813739726,16.8392298165779
"999","KY","Jessamine",37.88514225,-84.6182045,13.9937897888901
"1000","KY","Johnson",37.8364617,-82.812871,12.815653417468
"1001","KY","Kenton",38.9842012727273,-84.5360225454545,15.3446427781474
"1002","KY","Knott",37.33237,-82.9296496666667,12.2467490294497
"1003","KY","Knox",36.8717986111111,-83.8382366666667,12.85075148513
"1004","KY","Larue",37.4944595,-85.67420175,12.3920583145917
"1005","KY","Laurel",37.1266856363636,-84.1049431818182,13.7541690542494
"1006","KY","Lawrence",38.092412625,-82.74451275,12.3695129004773
"1007","KY","Lee",37.5979433333333,-83.6892678333333,11.2390016455427
"1008","KY","Leslie",37.0910889444444,-83.4007171111111,11.9188371400192
"1009","KY","Letcher",37.1410265416667,-82.8233949166667,12.7388720673062
"1010","KY","Lewis",38.52554775,-83.330480875,12.022636467777
"1011","KY","Lincoln",37.4306111666667,-84.66411,12.7654541203021
"1012","KY","Livingston",37.1785098571429,-88.3507215714286,12.0677009862634
"1013","KY","Logan",36.8314968333333,-86.8503071666667,13.0602049549168
"1014","KY","Lyon",37.059111,-88.084921,11.897248649325
"1015","KY","Madison",37.7040646666667,-84.2626811666667,14.2828719495725
"1016","KY","Magoffin",37.6928338888889,-83.0423664444444,11.9754071250046
"1017","KY","Marion",37.582149875,-85.30877125,12.6353909896605
"1018","KY","Marshall",36.91463425,-88.31245575,13.4053187968107
"1019","KY","Martin",37.8155348571429,-82.5484721428572,11.8282762049693
"1020","KY","Mason",38.6363162,-83.8580048,12.7492279862867
"1021","KY","Meade",37.9723877142857,-86.2393961428571,13.2199527759968
"1022","KY","Menifee",37.95940825,-83.606243,11.1846297096331
"1023","KY","Mercer",37.8081576666667,-84.831561,12.9110471072408
"1024","KY","Metcalfe",36.9977334,-85.6643894,11.7140524199665
"1025","KY","Monroe",36.7077212,-85.758247,11.9100962702536
"1026","KY","Montgomery",38.0107543333333,-83.8554156666667,13.0624923465669
"1027","KY","Morgan",37.9335011111111,-83.2050346666667,11.9866720804948
"1028","KY","Muhlenberg",37.2228992857143,-87.0986948571429,13.1639409264214
"1029","KY","Nelson",37.7935934444444,-85.4380608888889,13.7650243062512
"1030","KY","Nicholas",38.318959,-83.9405965,11.5563775976428
"1031","KY","Ohio",37.4541118181818,-86.8207618181818,12.8832911354025
"1032","KY","Oldham",38.3974771428571,-85.4635774285714,14.6833939323892
"1033","KY","Owen",38.547668,-84.9108723333333,12.0415988653798
"1034","KY","Owsley",37.4130196666667,-83.692027,10.6378726411123
"1035","KY","Pendleton",38.713202,-84.3989633333333,12.482544618954
"1036","KY","Perry",37.2690907307692,-83.2111226538461,13.109326768892
"1037","KY","Pike",37.4719650232558,-82.3561103488372,13.8743019710682
"1038","KY","Powell",37.8286326666667,-83.7795296666667,12.0336340905902
"1039","KY","Pulaski",37.0715795454545,-84.5936085454545,13.8321188731873
"1040","KY","Robertson",38.531698,-84.035565,10.2527349806461
"1041","KY","Rockcastle",37.3500181666667,-84.3186936666667,12.2545294207984
"1042","KY","Rowan",38.1725264,-83.416412,12.7555832620538
"1043","KY","Russell",36.9821765,-85.097139,12.4556088270003
"1044","KY","Scott",38.3098883333333,-84.6012123333333,13.992559069995
"1045","KY","Shelby",38.1992536666667,-85.2130828333333,13.9092759087709
"1046","KY","Simpson",36.749382,-86.582631,12.6816357919811
"1047","KY","Spencer",38.0262265,-85.2736215,12.9771156153982
"1048","KY","Taylor",37.3440595,-85.276336,12.8315885272423
"1049","KY","Todd",36.8460031428571,-87.1655855714286,12.2337413130775
"1050","KY","Trigg",36.8777225,-87.7734775,12.4131843711313
"1051","KY","Trimble",38.6452065,-85.3541015,11.946135433387
"1052","KY","Union",37.6317246,-87.9293902,12.6199258086683
"1053","KY","Warren",36.9534305,-86.3962349166667,14.7025846090667
"1054","KY","Washington",37.77718,-85.1498825,12.2222658254249
"1055","KY","Wayne",36.8338815,-84.8218725,12.4298360047238
"1056","KY","Webster",37.517535125,-87.729139625,12.4734053162319
"1057","KY","Whitley",36.7940145714286,-84.1015735714286,13.1236865016892
"1058","KY","Wolfe",37.749378,-83.5222705,11.2374881189349
"1059","KY","Woodford",38.04679525,-84.7366675,13.4586027297673
"1060","MA","Barnstable",41.7617902807018,-70.2411746315789,15.881000983813
"1061","MA","Berkshire",42.3389655263158,-73.2198372368421,15.0645336848187
"1062","MA","Bristol",41.7941108888889,-71.0973393555556,16.5242557841473
"1063","MA","Dukes",41.40202975,-70.65508775,13.4519534144973
"1064","MA","Essex",42.6454507192982,-70.957523754386,17.1647449122459
"1065","MA","Franklin",42.5772852903226,-72.6260248064516,14.4007484218755
"1066","MA","Hampden",42.1427138181818,-72.5765678363636,16.2132561832024
"1067","MA","Hampshire",42.3632247241379,-72.7095526896552,15.2928617480208
"1068","MA","Middlesex",42.4344479035088,-71.3494215350877,18.1579202660027
"1069","MA","Nantucket",41.2797966666667,-70.0494046666667,13.1983239182069
"1070","MA","Norfolk",42.1880575777778,-71.1569870666667,17.4714885721929
"1071","MA","Plymouth",41.9855306229508,-70.7799037868852,16.7366827417902
"1072","MA","Suffolk",42.3391276923077,-71.0088223076923,17.1499492134344
"1073","MA","Worcester",42.315123038835,-71.8962203592233,17.0332268308118
"1074","MD","Allegany",39.6014296818182,-78.8138111363636,14.0596646342235
"1075","MD","Anne Arundel",38.9992377674419,-76.6006971627907,16.8842343377987
"1076","MD","Baltimore",39.4291238113208,-76.618075,17.1691206816751
"1077","MD","Calvert",38.5073944285714,-76.5278890714286,15.0056641148218
"1078","MD","Caroline",38.902742,-75.8571722631579,13.4073889244149
"1079","MD","Carroll",39.5373912666667,-77.0278662666667,15.5886857374215
"1080","MD","Cecil",39.5415121764706,-75.9554424705882,14.7854720957044
"1081","MD","Charles",38.475165375,-76.968196625,15.4261433562379
"1082","MD","Dorchester",38.44510725,-76.057051625,13.3729851213904
"1083","MD","Frederick",39.4506629677419,-77.4123891935484,15.9262982599199
"1084","MD","Garrett",39.5471506666667,-79.2267664444445,13.312163566054
"1085","MD","Harford",39.5437847619048,-76.3117961428571,15.9473989034838
"1086","MD","Howard",39.2207410952381,-76.911133952381,16.4967939701923
"1087","MD","Kent",39.2873303333333,-75.9982298888889,13.3372811899013
"1088","MD","Montgomery",39.1168354383562,-77.1586888767123,17.7513307508191
"1089","MD","Somerset",38.0733790833333,-75.8518030833333,12.7261186308162
"1090","MD","Talbot",38.7723461875,-76.186027625,14.2017289642211
"1091","MD","Washington",39.57431084,-77.76015396,15.0677936970742
"1092","MD","Wicomico",38.3884887222222,-75.6169258333333,14.5199714959245
"1093","MD","Worcester",38.2553663333333,-75.330181,14.2053624110887
"1094","ME","Androscoggin",44.15035288,-70.23192864,14.5766532461425
"1095","ME","Aroostook",46.6317562765957,-68.4903794680851,14.0385469035322
"1096","ME","Cumberland",43.9736954814815,-70.3778491666667,16.068774831016
"1097","ME","Franklin",44.8182787,-70.272821,13.2391557002446
"1098","ME","Hancock",44.5054471276596,-68.4340774893617,14.1003819341073
"1099","ME","Kennebec",44.3915781176471,-69.7795942941176,14.80979624075
"1100","ME","Knox",44.0919724090909,-69.1256383636364,13.8676285122264
"1101","ME","Lincoln",43.9843561,-69.5501338333333,13.6616061811353
"1102","ME","Oxford",44.3672296470588,-70.6604723235294,13.8442301732355
"1103","ME","Penobscot",45.1350143,-68.79929344,14.9881326234889
"1104","ME","Piscataquis",45.5276465833333,-69.2324869166667,12.5791626225966
"1105","ME","Sagadahoc",43.92459,-69.8476642,13.764045669908
"1106","ME","Somerset",44.9715945384615,-69.6927945384615,13.7113448837546
"1107","ME","Waldo",44.4805786,-69.1247436,13.5641938439665
"1108","ME","Washington",45.00015515625,-67.4778258125,13.1694759447185
"1109","ME","York",43.4548036904762,-70.688893452381,15.4868556576114
"1110","MI","Alcona",44.6662574444444,-83.5264944444444,12.1373172458446
"1111","MI","Alger",46.3934516,-86.7490329,12.0413748734898
"1112","MI","Allegan",42.6129263529412,-85.8503972352941,14.8058358307247
"1113","MI","Alpena",44.9961038,-83.6140422,13.2443225696561
"1114","MI","Antrim",45.0095092222222,-85.2302886666667,13.2646126585686
"1115","MI","Arenac",44.0673155,-83.8263195,12.5395547017288
"1116","MI","Baraga",46.7340556,-88.41639,11.831706415274
"1117","MI","Barry",42.6223286666667,-85.3158053333333,14.1570435388187
"1118","MI","Bay",43.6780636363636,-83.9567504545455,14.6854469366712
"1119","MI","Benzie",44.6309307142857,-86.0482744285714,12.9086056411986
"1120","MI","Berrien",41.9645547307692,-86.5061957307692,15.1036246745816
"1121","MI","Branch",41.9255605,-85.0764386666667,13.5746611795311
"1122","MI","Calhoun",42.2220733333333,-85.0481692,14.8357886231127
"1123","MI","Cass",41.900617,-85.9226907142857,13.9431330272358
"1124","MI","Charlevoix",45.3338501428571,-85.1450218571429,13.4605384490929
"1125","MI","Cheboygan",45.4826279,-84.5523871,13.1861622500694
"1126","MI","Chippewa",46.29753195,-84.5345367,13.3619265853147
"1127","MI","Clare",43.960998,-84.848807,13.0605390362123
"1128","MI","Clinton",42.9577838,-84.6275594,14.5547146469415
"1129","MI","Crawford",44.7205036666667,-84.6404086666667,12.3718455251852
"1130","MI","Delta",45.8689659,-86.9913703,13.5798616394698
"1131","MI","Dickinson",45.9543076363636,-87.8845743636364,13.3531702900136
"1132","MI","Eaton",42.6321833076923,-84.8361209230769,14.7834737723251
"1133","MI","Emmet",45.5314293,-84.9045326,13.8266809363359
"1134","MI","Genesee",42.9984838611111,-83.7098698888889,15.9658373128559
"1135","MI","Gladwin",43.9555493333333,-84.3646253333333,13.0081056206441
"1136","MI","Gogebic",46.4112903333333,-89.8142963333333,12.5053472640178
"1137","MI","Grand Traverse",44.7232075,-85.5563116666667,14.722579701388
"1138","MI","Gratiot",43.2950415625,-84.6198741875,13.5455086004342
"1139","MI","Hillsdale",41.909513125,-84.54916325,13.576814186119
"1140","MI","Houghton",47.0379750588235,-88.6035799411765,13.3382083588374
"1141","MI","Huron",43.8507061428571,-83.0685665714286,13.5242219899184
"1142","MI","Ingham",42.6577674722222,-84.44612725,15.6636845440391
"1143","MI","Ionia",42.9720675384615,-85.0491904615385,13.9531633210621
"1144","MI","Iosco",44.332579875,-83.66659325,13.0016816445817
"1145","MI","Iron",46.1034924285714,-88.5158285714286,12.2660523535521
"1146","MI","Isabella",43.605228875,-84.860126,14.0097186886942
"1147","MI","Jackson",42.2370702105263,-84.4252783157895,15.0242867077337
"1148","MI","Kalamazoo",42.249616173913,-85.516664,15.7273459876419
"1149","MI","Kalkaska",44.711824,-85.1988083333333,12.6374004131641
"1150","MI","Kent",43.0082267777778,-85.5772305111111,16.696979021118
"1151","MI","Keweenaw",47.351352,-88.25944725,10.7135062423273
"1152","MI","Lake",43.978375,-85.8148036666667,11.8778810297402
"1153","MI","Lapeer",43.08023825,-83.2408278333333,14.5502655042454
"1154","MI","Leelanau",44.9542567777778,-85.7830596666667,13.5395066956594
"1155","MI","Lenawee",41.9120060454545,-84.0662449545455,14.5625084100335
"1156","MI","Livingston",42.5695401666667,-83.8983716666667,15.6311330274569
"1157","MI","Luce",46.4038755,-85.587065,11.5590358512639
"1158","MI","Mackinac",46.0433485,-85.0371487,12.3936926407753
"1159","MI","Macomb",42.62163915,-82.945513075,16.8816322340683
"1160","MI","Manistee",44.3481616,-86.1149178,13.0331714429081
"1161","MI","Marquette",46.4860311538462,-87.6596876923077,14.2337734243023
"1162","MI","Mason",43.9872028333333,-86.215009,13.3331152682438
"1163","MI","Mecosta",43.6607494444444,-85.3132802222222,13.4544775600599
"1164","MI","Menominee",45.5582932857143,-87.525185,13.0676664023252
"1165","MI","Midland",43.6705797272727,-84.3582048181818,14.7751549888886
"1166","MI","Missaukee",44.30510175,-85.059319,12.4040665798434
"1167","MI","Monroe",41.9011259444444,-83.5332529444444,15.1544884435021
"1168","MI","Montcalm",43.3225148333333,-85.1502811111111,13.8655399539687
"1169","MI","Montmorency",45.0010886666667,-84.1381093333333,11.9553908742225
"1170","MI","Muskegon",43.2921572,-86.1827186,14.9765610386221
"1171","MI","Newaygo",43.5773474285714,-85.8218422857143,13.6746322426767
"1172","MI","Oakland",42.611638372093,-83.3279252325581,17.7647426391747
"1173","MI","Oceana",43.65107825,-86.295649875,13.0701054073405
"1174","MI","Ogemaw",44.3552678333333,-84.09573,12.7353087515374
"1175","MI","Ontonagon",46.6533334444444,-89.2760627777778,11.6018882700183
"1176","MI","Osceola",43.9958755714286,-85.3237411428571,12.8523561799925
"1177","MI","Oscoda",44.68286325,-84.0740265,11.7301314236177
"1178","MI","Otsego",45.0044053333333,-84.6184443333333,13.1461287309546
"1179","MI","Ottawa",42.9644463157895,-86.0546996315789,15.8011705384069
"1180","MI","Presque Isle",45.3373056666667,-83.8168671666667,12.4257461833051
"1181","MI","Roscommon",44.3613616666667,-84.6593835,12.978744707407
"1182","MI","Saginaw",43.3725533043478,-84.0210973478261,15.214184722121
"1183","MI","Sanilac",43.4293022941176,-82.7813379411765,13.5588696836078
"1184","MI","Schoolcraft",46.0096458,-86.2872008,11.9448702058828
"1185","MI","Shiawassee",42.9125215,-84.1393900833333,14.1557699001544
"1186","MI","Tuscola",43.4601886875,-83.4598435625,13.8641807149331
"1187","MI","Van Buren",42.2955080666667,-86.02747,14.27238082087
"1188","MI","Washtenaw",42.2546181578947,-83.7790021052632,16.2725452004053
"1189","MI","Wayne",42.2642935978261,-83.2138734673913,17.4300244836828
"1190","MI","Wexford",44.363721,-85.6191111666667,13.2577697611339
"1191","MN","Aitkin",46.5837925,-93.416208125,12.6225040698537
"1192","MN","Anoka",45.2212635833333,-93.2655415,16.1166814514494
"1193","MN","Becker",46.9202583846154,-95.6971443076923,13.5924495032471
"1194","MN","Beltrami",47.8690085714286,-94.8713688571429,13.6537995373144
"1195","MN","Benton",45.697313,-93.9971886,13.7583294379842
"1196","MN","Big Stone",45.4375427142857,-96.4793804285714,11.7386496834965
"1197","MN","Blue Earth",44.036686,-94.027806,14.2225124845617
"1198","MN","Brown",44.2434562857143,-94.7062107142857,13.4873356034954
"1199","MN","Carlton",46.5978103636364,-92.6595420909091,13.5532401890885
"1200","MN","Carver",44.8120446111111,-93.7754123333333,15.2317522380763
"1201","MN","Cass",46.995887,-94.3328438333333,13.3696764777057
"1202","MN","Chippewa",45.026903,-95.5968934,12.6877485133838
"1203","MN","Chisago",45.4711925833333,-92.880122,14.209390820127
"1204","MN","Clay",46.8942568,-96.4900744,14.1690751698313
"1205","MN","Clearwater",47.6058588,-95.4043566,12.1104809260973
"1206","MN","Cook",47.753344,-90.4517278333333,11.8018867189204
"1207","MN","Cottonwood",43.9730398333333,-95.1218816666667,12.6133461175622
"1208","MN","Crow Wing",46.4879644,-94.0939188,14.2022969669323
"1209","MN","Dakota",44.74531755,-93.11912095,16.494512377205
"1210","MN","Dodge",44.0366066666667,-92.8563151666667,13.2162980661999
"1211","MN","Douglas",45.9340474,-95.4464811,13.8761878842742
"1212","MN","Faribault",43.6787927272727,-93.9275944545455,12.755063618056
"1213","MN","Fillmore",43.6739005,-92.0399413333333,13.0604986119275
"1214","MN","Freeborn",43.6989018571429,-93.4006693571429,13.5016706666982
"1215","MN","Goodhue",44.406926,-92.7184097,14.1161179869341
"1216","MN","Grant",45.9335328571429,-95.941152,12.0497754970197
"1217","MN","Hennepin",44.9859969326923,-93.4174413365385,17.7368704586077
"1218","MN","Houston",43.6678048571429,-91.470266,13.0978083553479
"1219","MN","Hubbard",47.0400211666667,-94.9055098333333,13.0301296604316
"1220","MN","Isanti",45.635618,-93.2894068333333,13.7339370959506
"1221","MN","Itasca",47.395458,-93.55779392,13.8473337847515
"1222","MN","Jackson",43.7074872,-95.1970764,12.588958073899
"1223","MN","Kanabec",45.8759905,-93.3502065,12.6694072109233
"1224","MN","Kandiyohi",45.136025,-95.012039,13.9587377936171
"1225","MN","Kittson",48.7487126,-96.8359255,11.6322628475588
"1226","MN","Koochiching",48.2974004545455,-93.7661291818182,12.5644985556326
"1227","MN","Lake",47.3101333333333,-91.4533101666667,12.485135176236
"1228","MN","Le Sueur",44.3384078888889,-93.7106788888889,13.4995606895636
"1229","MN","Lincoln",44.3748454,-96.2362374,11.7940963858064
"1230","MN","Lyon",44.4211552,-95.8717548,13.4037260242811
"1231","MN","Mahnomen",47.280657,-95.87444875,11.423678864456
"1232","MN","Marshall",48.3354948181818,-96.6354186363636,12.4961530895881
"1233","MN","Martin",43.7062162,-94.5785603,13.2590475448072
"1234","MN","Meeker",45.1450717142857,-94.5175875714286,13.2167458542981
"1235","MN","Mille Lacs",45.845940125,-93.61533325,13.1468901225809
"1236","MN","Morrison",46.0068536153846,-94.3514161538462,13.4112152653551
"1237","MN","Mower",43.6633802857143,-92.7583267857143,13.7745135481297
"1238","MN","Murray",43.9726575,-95.70541275,12.3519679144584
"1239","MN","Nicollet",44.2910624,-94.1838752,13.7160592153694
"1240","MN","Nobles",43.6705552727273,-95.8002265454545,13.1606451883884
"1241","MN","Norman",47.2898566666667,-96.5552806666667,11.9875061037091
"1242","MN","Olmsted",44.0106943636364,-92.4093841818182,15.4196599105859
"1243","MN","Otter Tail",46.3961665,-95.72824595,14.150914366877
"1244","MN","Pennington",48.0784866666667,-96.0556063333333,12.7781081315907
"1245","MN","Pine",46.1168011538462,-92.860198,13.1681872416912
"1246","MN","Pipestone",43.97999825,-96.243146125,12.2276237433605
"1247","MN","Polk",47.7430114117647,-96.3544085882353,13.5566621057793
"1248","MN","Pope",45.6612008333333,-95.504978,12.5888864727786
"1249","MN","Ramsey",44.9943320512821,-93.1092494102564,16.5518734130194
"1250","MN","Red Lake",47.8500035,-96.05619375,11.4303261586483
"1251","MN","Redwood",44.3984642857143,-95.3010813571429,12.979116369236
"1252","MN","Renville",44.6980489,-94.9686631,12.993113093457
"1253","MN","Rice",44.372754375,-93.311703625,14.3028818671324
"1254","MN","Rock",43.664393625,-96.242485625,12.4221714407177
"1255","MN","Roseau",48.7823141111111,-95.8178163333333,12.89450874636
"1256","MN","Scott",44.6560402857143,-93.484194,15.4535901531853
"1257","MN","Sherburne",45.449388,-93.7573396666667,14.7146787319457
"1258","MN","Sibley",44.5921644285714,-94.205389,12.7984847078807
"1259","MN","Stearns",45.5436645,-94.5908701470588,15.2061663940096
"1260","MN","Steele",44.0204974,-93.2349172,13.7625147625123
"1261","MN","Stevens",45.5887874,-95.9802708,12.6032300063392
"1262","MN","Swift",45.2795524285714,-95.6636985714286,12.4208129885796
"1263","MN","Todd",46.058864,-94.911847,12.9867498185755
"1264","MN","Traverse",45.755943,-96.56262325,11.489554478647
"1265","MN","Wabasha",44.2653536666667,-92.2713465555556,13.2464977560677
"1266","MN","Wadena",46.5730515,-94.9729388333333,12.4399305921616
"1267","MN","Waseca",44.00129475,-93.595446,12.9876518601351
"1268","MN","Washington",45.0147455,-92.9053556111111,16.0825183166326
"1269","MN","Watonwan",43.980029,-94.6308464285714,12.4545525046576
"1270","MN","Wilkin",46.3094011428571,-96.4863948571429,12.2310774045197
"1271","MN","Winona",44.0103784,-91.8033242,14.0411773232949
"1272","MN","Wright",45.1791217096774,-93.9247465806452,15.1059232259972
"1273","MN","Yellow Medicine",44.7140504285714,-95.7307194285714,12.4770382735207
"1274","MO","Adair",40.2065516,-92.5465366,12.8840960359443
"1275","MO","Andrew",39.98018875,-94.81480125,12.9741649477364
"1276","MO","Atchison",40.4224998,-95.416327,11.8626805216198
"1277","MO","Audrain",39.207267375,-91.719735125,12.9730138203865
"1278","MO","Barry",36.7054151818182,-93.9064839090909,13.2076177116981
"1279","MO","Barton",37.4849072,-94.3779372,12.2113934648313
"1280","MO","Bates",38.2596367,-94.387739,12.5732715181596
"1281","MO","Benton",38.3702986,-93.3182956,12.5175237334561
"1282","MO","Bollinger",37.2959494444444,-90.0407212222222,12.0776254493048
"1283","MO","Boone",38.9624903888889,-92.2633105,15.263577352501
"1284","MO","Buchanan",39.7003494615385,-94.8220922307692,14.4145931826082
"1285","MO","Butler",36.7138638888889,-90.3728217777778,13.5173807643146
"1286","MO","Caldwell",39.6491661428571,-93.9802867142857,11.9515480702364
"1287","MO","Callaway",38.7772044545455,-91.9402739090909,13.6658962399382
"1288","MO","Camden",38.0603611,-92.7458195,13.6991823385494
"1289","MO","Cape Girardeau",37.389429,-89.70188375,14.4429163609114
"1290","MO","Carroll",39.4217987777778,-93.3902992222222,12.1221419728397
"1291","MO","Carter",36.93320525,-90.96022225,11.29889030602
"1292","MO","Cass",38.6609908333333,-94.352518,14.7722520154469
"1293","MO","Cedar",37.72565075,-93.91565175,12.0991164129486
"1294","MO","Chariton",39.517539375,-93.05769075,11.966894982138
"1295","MO","Christian",36.94697,-93.1779554166667,14.3574638497454
"1296","MO","Clark",40.4079718571429,-91.6756002857143,11.6871728464966
"1297","MO","Clay",39.2753095652174,-94.4521285652174,15.6434339899073
"1298","MO","Clinton",39.6052153333333,-94.4554413333333,13.0422525007407
"1299","MO","Cole",38.5089822352941,-92.2857028235294,14.4723852750087
"1300","MO","Cooper",38.8419678571429,-92.7792362857143,12.6205206199489
"1301","MO","Crawford",37.9424285,-91.3218275,12.8857849813637
"1302","MO","Dade",37.4051283333333,-93.8501871666667,11.7030332965646
"1303","MO","Dallas",37.6808348333333,-93.0534608333333,12.3329563662645
"1304","MO","Daviess",39.9761491111111,-93.9943521111111,11.8194832646908
"1305","MO","Dent",37.611142,-91.5194438333333,12.3042151740815
"1306","MO","Douglas",36.93722675,-92.54065775,11.9179371369584
"1307","MO","Dunklin",36.2653705833333,-90.1164399166667,13.0240093698529
"1308","MO","Franklin",38.4259826842105,-91.0186162631579,14.6980902027818
"1309","MO","Gasconade",38.4829127142857,-91.5262932857143,12.4831436188695
"1310","MO","Gentry",40.1739513333333,-94.4040318333333,11.6028484324967
"1311","MO","Greene",37.2392952083333,-93.3404612083333,15.6332936235494
"1312","MO","Grundy",40.12440225,-93.512619,11.9963202807081
"1313","MO","Harrison",40.409114875,-94.018232,11.768327084848
"1314","MO","Henry",38.3806474285714,-93.8079572857143,12.8980416322923
"1315","MO","Hickory",37.9333811428571,-93.3435232857143,11.6444272994342
"1316","MO","Holt",40.0904148,-95.1928676,11.5894975415806
"1317","MO","Howard",39.1379362,-92.7466142,12.1062578350946
"1318","MO","Howell",36.7540967,-91.8993298,13.3222464900773
"1319","MO","Iron",37.5668209090909,-90.7970058181818,11.8234789804943
"1320","MO","Jackson",39.0238875238095,-94.4190148690476,16.607479636984
"1321","MO","Jasper",37.18744255,-94.342492,14.5906408700494
"1322","MO","Jefferson",38.284354,-90.5264947,15.4382123153961
"1323","MO","Johnson",38.7192165,-93.7786525,13.7815359001681
"1324","MO","Knox",40.1391288571429,-92.1946868571429,10.944841422364
"1325","MO","Laclede",37.608479,-92.5919128333333,13.2293361926084
"1326","MO","Lafayette",39.0687532307692,-93.7658952307692,13.3954469077879
"1327","MO","Lawrence",37.0727738888889,-93.8215677777778,13.3131291809809
"1328","MO","Lewis",40.067809625,-91.737110375,12.0650619237545
"1329","MO","Lincoln",39.046916,-90.9576635454546,13.9043772960399
"1330","MO","Linn",39.8574577777778,-93.1183507777778,12.3457215380372
"1331","MO","Livingston",39.7755812857143,-93.5572455714286,12.6021706859874
"1332","MO","Macon",39.8208343,-92.5671838,12.5009711170272
"1333","MO","Madison",37.452078,-90.286181,12.1426854613498
"1334","MO","Maries",38.16338075,-91.905251,11.8139259522832
"1335","MO","Marion",39.8346994,-91.5999756,13.2411379213539
"1336","MO","Mercer",40.4142835,-93.5775005,10.9561431589308
"1337","MO","Miller",38.2256025555556,-92.433998,12.8079566959217
"1338","MO","Mississippi",36.8436171666667,-89.2947846666667,12.2414494418305
"1339","MO","Moniteau",38.641284875,-92.617792,12.4958313103707
"1340","MO","Monroe",39.4823163333333,-91.9749101666667,11.9272974554381
"1341","MO","Montgomery",38.95634075,-91.43082075,12.2135396975774
"1342","MO","Morgan",38.402978,-92.85909075,12.5606934812323
"1343","MO","New Madrid",36.6255197142857,-89.7015772857143,12.6182253417882
"1344","MO","Newton",36.8905046363636,-94.2853277272727,13.959382304383
"1345","MO","Nodaway",40.3412355625,-94.894963625,12.9056615336696
"1346","MO","Oregon",36.6403424,-91.477124,11.7025535969466
"1347","MO","Osage",38.4680426666667,-91.9257992222222,12.4668317763057
"1348","MO","Ozark",36.6354371333333,-92.4354116666667,11.3517115659026
"1349","MO","Pemiscot",36.1955518181818,-89.8078805454546,12.4957676905925
"1350","MO","Perry",37.6823378571429,-89.7168822857143,12.8487446180313
"1351","MO","Pettis",38.71443975,-93.269850875,13.5036915185225
"1352","MO","Phelps",37.8320833333333,-91.8586547777778,13.5793146946241
"1353","MO","Pike",39.372847875,-91.09047525,12.591154757961
"1354","MO","Platte",39.3212442941176,-94.7499639411765,15.0582102035088
"1355","MO","Polk",37.6129324615385,-93.4225506923077,13.0001279445217
"1356","MO","Pulaski",37.830027,-92.203011,13.5634246893426
"1357","MO","Putnam",40.4746104,-93.0183178,11.2331586507149
"1358","MO","Ralls",39.54107575,-91.45354625,12.2551627647086
"1359","MO","Randolph",39.426069,-92.445912625,12.9767686574067
"1360","MO","Ray",39.3139252857143,-94.0161685714286,13.086823242605
"1361","MO","Reynolds",37.3196505714286,-91.0343828571429,11.3201777441324
"1362","MO","Ripley",36.6591951666667,-90.8440948333333,12.0529272935248
"1363","MO","Saline",39.1376686666667,-93.2192224444444,12.9492068927335
"1364","MO","Schuyler",40.4582398,-92.542297,10.8673105148556
"1365","MO","Scotland",40.4253964,-92.1451532,11.2823669909375
"1366","MO","Scott",37.0688984545455,-89.5738348181818,13.6211220879362
"1367","MO","Shannon",37.0894896,-91.3717028,11.4348341853552
"1368","MO","Shelby",39.772016125,-92.08505525,11.6191036462484
"1369","MO","Stoddard",36.9121609090909,-89.9298057272727,13.2060112708865
"1370","MO","Stone",36.748505,-93.4313067777778,13.2326965090887
"1371","MO","Sullivan",40.231529375,-93.0801435,11.4765415243703
"1372","MO","Taney",36.6582723888889,-93.0857570555556,13.6024237674829
"1373","MO","Texas",37.322196375,-91.9641119375,12.6289388066517
"1374","MO","Vernon",37.798688,-94.36057725,12.6593877934897
"1375","MO","Warren",38.7266996,-91.1202898,13.4547659154535
"1376","MO","Washington",37.920103875,-90.7899325,12.6120776078908
"1377","MO","Wayne",37.1180526428571,-90.4408201428571,11.8973303553467
"1378","MO","Webster",37.2447217142857,-92.8868102857143,13.2838136360768
"1379","MO","Worth",40.4935938,-94.4543086,10.401683759902
"1380","MO","Wright",37.251011,-92.4757062857143,12.3046456782539
"1381","MS","Adams",31.482032,-91.3849282,13.2794320813693
"1382","MS","Alcorn",34.8709365,-88.52410425,13.2573976401536
"1383","MS","Amite",31.2226765,-90.8186985,12.2874175818589
"1384","MS","Attala",33.0770148,-89.61124,12.5699759021581
"1385","MS","Benton",34.717951,-89.1762103333333,11.5262759493384
"1386","MS","Bolivar",33.7992100625,-90.853291375,13.4922399945131
"1387","MS","Calhoun",33.9216077777778,-89.3366714444444,12.1659847564885
"1388","MS","Carroll",33.4851584285714,-89.9108918571429,12.1185684198378
"1389","MS","Chickasaw",33.9248532857143,-88.9522188571429,12.4485638186805
"1390","MS","Choctaw",33.296347,-89.2874406666667,11.6647362665592
"1391","MS","Claiborne",31.9732786666667,-90.8911693333333,11.6615437262965
"1392","MS","Clarke",32.0560568,-88.771091,12.537539519053
"1393","MS","Clay",33.649737,-88.717766,12.66767546155
"1394","MS","Coahoma",34.2414597272727,-90.5767852727273,12.872126083092
"1395","MS","Copiah",31.8967694,-90.3562408,12.9555741667499
"1396","MS","Covington",31.636172,-89.5681303333333,12.5825654127281
"1397","MS","Forrest",31.245919375,-89.301036875,14.2470903564616
"1398","MS","Franklin",31.4756185,-90.937935,11.7934318536729
"1399","MS","George",30.866791,-88.649035,12.8916159900634
"1400","MS","Greene",31.20630475,-88.699189,12.1592325786844
"1401","MS","Grenada",33.7695613333333,-89.8113416666667,12.839573319513
"1402","MS","Hancock",30.3487626666667,-89.45619,13.6291183272077
"1403","MS","Harrison",30.4335809333333,-89.0753338,15.1602068422399
"1404","MS","Hinds",32.3098814736842,-90.3353311052632,15.4068808291431
"1405","MS","Holmes",33.1036797142857,-90.028723,12.2792301661479
"1406","MS","Humphreys",33.1270258,-90.537522,11.6369732802952
"1407","MS","Issaquena",32.711257,-90.952716,9.56458235867321
"1408","MS","Itawamba",34.2688354,-88.3599648,12.8531706519729
"1409","MS","Jackson",30.5034666153846,-88.6197231538462,14.9298646254539
"1410","MS","Jasper",32.003864375,-89.102160625,12.5224405664947
"1411","MS","Jefferson",31.73162025,-90.97614175,11.4677397967929
"1412","MS","Jefferson Davis",31.5937603333333,-89.8444763333333,12.0453638414723
"1413","MS","Jones",31.6532812222222,-89.1623517777778,14.0192249802232
"1414","MS","Kemper",32.81880475,-88.6320775,11.6841018106592
"1415","MS","Lafayette",34.345729375,-89.48079325,13.8550744814449
"1416","MS","Lamar",31.181711,-89.512006,14.1099025683474
"1417","MS","Lauderdale",32.4258126923077,-88.6683671538461,14.239488573148
"1418","MS","Lawrence",31.5629078333333,-90.1021171666667,12.2935659896883
"1419","MS","Leake",32.6958558,-89.4848318,12.6797320841541
"1420","MS","Lee",34.2658879166667,-88.6904855,14.4060650555477
"1421","MS","Leflore",33.54465825,-90.298840125,13.130178757604
"1422","MS","Lincoln",31.5048322,-90.429414,13.3890505921356
"1423","MS","Lowndes",33.4878954,-88.4693957,13.9474647073944
"1424","MS","Madison",32.6101365,-90.09416575,15.0717474852711
"1425","MS","Marion",31.1971195,-89.88925575,13.0433353214642
"1426","MS","Marshall",34.830694,-89.513948125,13.1952476010832
"1427","MS","Monroe",33.873709,-88.4036491111111,13.2981519741429
"1428","MS","Montgomery",33.50769925,-89.580995,11.9854010364477
"1429","MS","Neshoba",32.699154,-89.114395,13.0558431606711
"1430","MS","Newton",32.4002522857143,-89.1046315714286,12.7433347263592
"1431","MS","Noxubee",33.1428726666667,-88.562201,11.814170148011
"1432","MS","Oktibbeha",33.426685,-88.8620715,13.5846737392118
"1433","MS","Panola",34.3548958571429,-89.9762141428571,13.2085318992914
"1434","MS","Pearl River",30.655242,-89.6179358,13.7665429780576
"1435","MS","Perry",31.2467875,-88.97596575,12.1100352013332
"1436","MS","Pike",31.1568047142857,-90.4190277142857,13.396654692517
"1437","MS","Pontotoc",34.260675,-89.0431658333333,13.1170854737423
"1438","MS","Prentiss",34.5924515,-88.50330125,12.7656912906044
"1439","MS","Quitman",34.2278747142857,-90.269713,11.3754089996235
"1440","MS","Rankin",32.2839578,-89.9849575333333,15.0870745318519
"1441","MS","Scott",32.44284725,-89.520073,12.9260954200955
"1442","MS","Sharkey",32.8808805,-90.8482768333333,11.0496193571722
"1443","MS","Simpson",31.9207077142857,-89.9171744285714,12.9461320375335
"1444","MS","Smith",31.9051926666667,-89.4786033333333,12.428507946094
"1445","MS","Stone",30.780641,-89.1240736666667,12.5203211835688
"1446","MS","Sunflower",33.6051351,-90.5649012,12.8025905266299
"1447","MS","Tallahatchie",33.9486181,-90.2193918,11.9501863536179
"1448","MS","Tate",34.67341025,-89.9570375,13.0751711358762
"1449","MS","Tippah",34.7758836666667,-88.908111,12.6765168027292
"1450","MS","Tishomingo",34.6956622,-88.2463844,12.57754309418
"1451","MS","Tunica",34.64241825,-90.34278625,11.9554872371639
"1452","MS","Union",34.47472,-89.0282625,13.0229230803957
"1453","MS","Walthall",31.175558,-90.090824,12.300127492279
"1454","MS","Warren",32.3901178,-90.8314002,13.778175186437
"1455","MS","Washington",33.2899325714286,-90.9712615,13.5591268741195
"1456","MS","Wayne",31.6116706666667,-88.652316,12.8345879672634
"1457","MS","Webster",33.5867754,-89.2632716,11.9446884006865
"1458","MS","Wilkinson",31.154901,-91.2498725,11.8101592739955
"1459","MS","Winston",33.041219,-89.0882115,12.5537497298709
"1460","MS","Yalobusha",34.0450096,-89.7152134,12.1722004037698
"1461","MS","Yazoo",32.764751,-90.4172964285714,12.8032154053563
"1462","MT","Beaverhead",45.304600125,-113.020614875,12.1041894104519
"1463","MT","Big Horn",45.4890734,-107.4829025,12.0889543888593
"1464","MT","Blaine",48.4207777142857,-108.935633571429,11.4514436008266
"1465","MT","Broadwater",46.33816175,-111.552835,11.6046565200697
"1466","MT","Carbon",45.3251308,-109.0387366,12.4382829691578
"1467","MT","Carter",45.6331832,-104.559253,10.0391541639577
"1468","MT","Cascade",47.400979,-111.374266333333,14.4475177026548
"1469","MT","Chouteau",47.8536935714286,-110.419473285714,11.5080636655533
"1470","MT","Custer",46.35492725,-105.5455915,12.6403454648201
"1471","MT","Daniels",48.7797525,-105.53634975,11.0628813134641
"1472","MT","Dawson",47.32703925,-104.97377825,12.4875718936549
"1473","MT","Deer Lodge",46.1882445,-112.9105815,12.0630679511132
"1474","MT","Fallon",46.306156,-104.407845,11.5988921297714
"1475","MT","Fergus",47.2303904545455,-109.361865181818,12.4895810202102
"1476","MT","Flathead",48.2902367894737,-114.228182210526,14.6453562978771
"1477","MT","Gallatin",45.5328142142857,-111.187304357143,14.8537225954763
"1478","MT","Garfield",47.3964346,-107.0107262,10.0045538612709
"1479","MT","Glacier",48.6614856,-113.0735736,12.1468055393723
"1480","MT","Golden Valley",46.3811925,-109.130368,9.79478813561279
"1481","MT","Granite",46.475526,-113.296628,11.0625205206572
"1482","MT","Hill",48.5298522857143,-110.176978285714,12.7750983071241
"1483","MT","Jefferson",46.1825015,-112.035492166667,12.6290632805042
"1484","MT","Judith Basin",47.1005466,-110.1540506,10.6488950597572
"1485","MT","Lake",47.6269291666667,-114.192791583333,13.1273349983906
"1486","MT","Liberty",48.54870325,-111.18543475,10.5574780178949
"1487","MT","Lincoln",48.6011207142857,-115.316861285714,12.6966690310145
"1488","MT","Madison",45.3495943636364,-111.933978454545,12.1425576004622
"1489","MT","Meagher",46.629465,-110.953882,10.4644738294937
"1490","MT","Mineral",47.2714805,-115.122200833333,11.145651694236
"1491","MT","Missoula",46.9891971764706,-113.944132411765,14.8931637308611
"1492","MT","Musselshell",46.49977275,-108.195432,11.4381049313125
